City_ID,City,Latitude,Longitude,Max Temp,Humidity,Cloudiness,Wind Speed,Country,Date
0,nuuk,64.1835,-51.7216,5.34,65,75,1.03,GL,1682004270
1,avarua,-21.2078,-159.775,24.03,73,75,5.66,CK,1682004270
2,grytviken,-54.2811,-36.5092,1.83,99,100,0.75,GS,1682004271
3,dryden,49.7833,-92.7503,0.16,43,100,6.17,CA,1682004271
4,khvansar,33.2205,50.315,16.75,27,90,2.24,IR,1682004271
5,nadi,-17.8,177.4167,24.0,94,20,2.06,FJ,1682004272
6,fortuna,40.5982,-124.1573,7.77,85,55,2.24,US,1682004272
7,bilimbay,56.9689,59.8149,5.38,77,27,1.36,RU,1682004273
8,yellowknife,62.456,-114.3525,0.31,55,0,2.57,CA,1682004109
9,udachny,66.4167,112.4,-16.0,100,82,1.45,RU,1682004273
10,limon,10.0,-83.0333,30.59,65,75,2.06,CR,1682004162
11,albany,42.6001,-73.9662,11.13,53,8,0.89,US,1682004186
12,ust-nera,64.5667,143.2,-8.55,97,100,3.47,RU,1682004275
13,papao,-17.75,-149.55,26.82,81,100,9.0,PF,1682004275
14,hanzhong,33.0728,107.0303,17.55,92,100,1.22,CN,1682004275
15,cururupu,-1.8283,-44.8683,29.1,76,79,0.79,BR,1682004276
16,adamstown,-25.066,-130.1015,24.25,78,100,3.11,PN,1682004276
17,port-aux-francais,-49.35,70.2167,5.88,82,100,13.9,TF,1682004277
18,mount gambier,-37.8333,140.7667,13.65,95,98,1.55,AU,1682004277
19,salalah,17.0151,54.0924,29.05,70,20,4.63,OM,1682004278
20,pemangkat,1.1667,108.9667,26.88,77,75,1.74,ID,1682004278
21,bilibino,68.0546,166.4372,-11.51,91,14,1.7,RU,1682004279
22,iqaluit,63.7506,-68.5145,-4.15,79,100,4.63,CA,1682004280
23,natal,-5.795,-35.2094,31.36,66,40,5.14,BR,1682004227
24,dudinka,69.4058,86.1778,-12.43,97,99,2.8,RU,1682004282
25,san luis,-33.295,-66.3356,23.74,29,0,5.75,AR,1682004118
26,waitangi,-43.9535,-176.5597,16.01,95,95,2.68,NZ,1682004192
27,sao vicente,-23.9631,-46.3919,25.1,44,0,4.12,BR,1682004284
28,blackmans bay,-43.0167,147.3167,15.07,77,100,2.9,AU,1682004285
29,hawaiian paradise park,19.5933,-154.9731,20.57,89,0,0.0,US,1682004285
30,roma,43.2128,-75.4557,9.42,52,0,2.57,US,1682004286
31,anjangaon,21.1631,77.3094,32.81,24,94,2.59,IN,1682004286
32,vorgashor,67.5833,63.95,-0.61,95,100,5.19,RU,1682004287
33,hasaki,35.7333,140.8333,19.22,82,4,11.29,JP,1682004287
34,tiksi,71.6872,128.8694,-21.54,100,100,1.66,RU,1682004287
35,gadzhiyevo,69.2551,33.3362,2.06,99,99,6.5,RU,1682004288
36,namibe,-15.1961,12.1522,27.89,68,45,4.26,AO,1682004288
37,kapuskasing,49.4169,-82.4331,-0.95,51,20,1.54,CA,1682004263
38,graaff-reinet,-32.2522,24.5308,20.51,45,100,10.46,ZA,1682004288
39,bodo,67.28,14.405,7.02,94,75,9.77,NO,1682004288
40,mili,6.0815,171.735,27.73,78,100,4.27,MH,1682004289
41,utrik,11.2278,169.8474,26.21,79,100,7.43,MH,1682004289
42,margaret river,-33.95,115.0667,14.32,63,0,2.76,AU,1682004289
43,stanley,54.868,-1.6985,12.38,67,20,7.2,GB,1682004289
44,saint-philippe,-21.3585,55.7679,26.77,85,43,5.8,RE,1682004290
45,port elizabeth,-33.918,25.5701,19.16,67,20,17.49,ZA,1682004290
46,atafu village,-8.5421,-172.5159,28.08,74,71,0.58,TK,1682004290
47,dwarka,22.2394,68.9678,27.3,72,5,6.39,IN,1682004290
48,kollam,8.8833,76.6,28.18,79,14,2.74,IN,1682003991
49,concordia,-31.393,-58.0209,18.04,48,20,0.51,AR,1682004291
50,vedene,43.9833,4.9,20.3,56,75,5.14,FR,1682004291
51,napier,-39.4833,176.9167,14.6,95,100,1.88,NZ,1682004291
52,payson,40.0444,-111.7321,5.78,44,20,4.92,US,1682004291
53,haiku-pauwela,20.9219,-156.3051,21.69,90,100,0.89,US,1682004292
54,aleksandrovsk,59.158,57.5624,6.56,10,93,1.93,RU,1682004292
55,isafjordur,66.0755,-23.124,10.02,66,75,7.72,IS,1682004013
56,georgetown,5.4112,100.3354,27.97,83,20,1.54,MY,1682004027
57,concepcion,-36.827,-73.0498,11.89,94,100,5.14,CL,1682004002
58,suoyarvi,62.0833,32.35,2.76,99,100,3.13,RU,1682004293
59,jamestown,42.097,-79.2353,18.01,50,0,2.57,US,1682004200
60,olonkinbyen,70.9221,-8.7187,1.01,95,100,2.4,SJ,1682004293
61,nova vicosa,-17.8919,-39.3719,30.66,61,4,3.39,BR,1682004293
62,mudkhed,19.1667,77.5167,33.67,23,59,5.97,IN,1682004294
63,kingscliff,-28.2667,153.5667,19.85,72,40,6.17,AU,1682004294
64,edinburgh of the seven seas,-37.0676,-12.3116,19.77,91,100,8.93,SH,1682004294
65,tadine,-21.55,167.8833,24.61,83,5,1.89,NC,1682004294
66,carolina,18.3808,-65.9574,30.71,66,40,7.2,PR,1682004294
67,ad dilam,23.9915,47.1627,31.23,20,1,2.57,SA,1682004295
68,alice springs,-23.7,133.8833,9.75,87,0,3.6,AU,1682004238
69,puerto ayora,-0.7393,-90.3518,28.98,88,92,3.13,EC,1682004295
70,hermanus,-34.4187,19.2345,16.0,66,40,9.18,ZA,1682004295
71,petropavlovsk-kamchatsky,53.0452,158.6483,-0.67,93,75,2.0,RU,1682004296
72,dzuunharaa,48.8523,106.4579,-2.26,31,38,1.8,MN,1682004296
73,kasongo,-4.45,26.6667,25.04,84,90,1.03,CD,1682004296
74,vanimo,-2.6741,141.3028,25.49,87,100,1.66,PG,1682004296
75,wailua homesteads,22.0669,-159.378,18.44,88,75,3.6,US,1682004296
76,thai binh,20.45,106.3333,24.1,98,59,5.02,VN,1682004297
77,tofol,5.3248,163.0078,27.77,77,44,2.98,FM,1682004297
78,lata,40.1629,-8.3327,22.73,37,53,5.0,PT,1682004297
79,bredasdorp,-34.5322,20.0403,14.79,64,66,8.17,ZA,1682004157
80,griffith,41.5284,-87.4237,22.39,57,40,8.75,US,1682004297
81,batesville,35.7698,-91.641,21.23,73,100,4.12,US,1682004232
82,safotu,-13.4513,-172.4018,28.45,83,100,9.37,WS,1682004298
83,klyuchi,52.2667,79.1667,-3.08,78,1,2.1,RU,1682004298
84,port lincoln,-34.7333,135.8667,15.84,79,69,2.71,AU,1682004298
85,port isabel,26.0734,-97.2086,27.05,85,100,7.2,US,1682004299
86,invercargill,-46.4,168.35,11.68,82,91,0.89,NZ,1682004299
87,dauphin,51.1494,-100.0502,-0.92,93,100,10.29,CA,1682004299
88,west island,-12.1568,96.8225,26.99,83,75,7.2,CC,1682004299
89,cidreira,-30.1811,-50.2056,18.74,59,17,7.41,BR,1682004300
90,tsiombe,-25.3,45.4833,24.68,81,10,4.74,MG,1682004300
91,eirunepe,-6.6603,-69.8736,28.02,77,100,1.25,BR,1682004300
92,oyem,1.5995,11.5793,21.71,98,100,1.39,GA,1682004301
93,bethel,41.3712,-73.414,12.72,50,75,1.54,US,1682004068
94,puerto natales,-51.7236,-72.4875,11.25,76,75,1.54,CL,1682004301
95,novokuybyshevsk,53.0959,49.9462,16.1,32,91,1.11,RU,1682004301
96,newman,37.3138,-121.0208,12.8,58,8,1.34,US,1682004302
97,camabatela,-8.1881,15.375,22.84,85,99,0.19,AO,1682004302
98,tadley,51.3504,-1.1285,15.48,42,0,8.23,GB,1682004107
99,shalkar,47.8288,59.6258,13.34,30,99,3.28,KZ,1682004303
100,kapa'a,22.0752,-159.319,19.18,88,75,3.6,US,1682004304
101,mar del plata,-38.0023,-57.5575,20.46,58,0,6.17,AR,1682004078
102,amursk,50.2261,136.8994,0.53,72,100,6.57,RU,1682004305
103,iskateley,67.6803,53.1512,-1.36,93,97,3.76,RU,1682004305
104,puttaparthi,14.1652,77.8117,34.28,17,35,2.08,IN,1682004306
105,pamukova,40.5081,30.1673,16.6,60,74,2.42,TR,1682004307
106,pangoa,-12.1167,-73.0,24.31,87,100,1.24,PE,1682004308
107,puerto baquerizo moreno,-0.9,-89.6,28.55,79,40,2.06,EC,1682004308
108,vilyuchinsk,52.9306,158.4028,0.15,88,95,2.25,RU,1682004309
109,kongolo,-5.3833,27.0,26.13,87,73,2.05,CD,1682004309
110,urmary,55.6789,47.944,12.1,54,100,1.36,RU,1682004310
111,lihue,21.9789,-159.3672,18.77,88,75,3.6,US,1682004310
112,piikkio,60.4248,22.516,14.15,44,0,3.6,FI,1682004310
113,port mathurin,-19.6833,63.4167,26.35,76,5,8.0,MU,1682004311
114,anshun,26.25,105.9333,18.51,92,98,6.26,CN,1682004311
115,tazovsky,67.4667,78.7,-13.04,98,47,2.79,RU,1682004312
116,kodiak,57.79,-152.4072,2.73,65,0,5.66,US,1682004313
117,flying fish cove,-10.4217,105.6791,27.5,73,100,6.96,CX,1682004313
118,whitehorse,60.7161,-135.0538,0.43,86,75,0.0,CA,1682004270
119,besuki,-7.7338,113.6979,26.36,87,92,1.27,ID,1682004314
120,vadso,70.0744,29.7487,5.49,87,75,7.72,NO,1682004315
121,papatowai,-46.5619,169.4708,11.07,84,100,1.82,NZ,1682004315
122,howrah,22.5892,88.3103,31.0,84,20,6.17,IN,1682004315
123,st. john's,47.5649,-52.7093,5.38,94,100,8.23,CA,1682004084
124,yongchuan,29.3514,105.8947,21.85,90,91,2.08,CN,1682004316
125,nemuro,43.3236,145.575,5.85,98,100,8.25,JP,1682004317
126,al jawf,29.5,38.75,26.17,25,74,3.83,SA,1682004317
127,anadyr,64.75,177.4833,-12.72,84,0,1.0,RU,1682004318
128,sorong,-0.8833,131.25,26.26,87,100,2.56,ID,1682004318
129,kenai,60.5544,-151.2583,0.61,80,0,3.09,US,1682004104
130,lazaro cardenas,17.9583,-102.2,27.52,62,40,0.49,MX,1682004069
131,magdagachi,53.45,125.8,-1.34,66,100,4.39,RU,1682004319
132,afaahiti,-17.75,-149.2833,25.93,83,100,8.46,PF,1682004319
133,ilulissat,69.2167,-51.1,-2.99,50,20,2.57,GL,1682004320
134,sao joao da barra,-21.6403,-41.0511,29.05,67,85,4.24,BR,1682004320
135,tobelo,1.7284,128.0095,27.09,81,61,1.55,ID,1682004321
136,tomatlan,19.9333,-105.25,26.52,51,46,0.59,MX,1682004322
137,susuman,62.7833,148.1667,-9.87,94,100,2.33,RU,1682004322
138,tual,-5.6667,132.75,28.3,75,100,4.74,ID,1682004323
139,dalbandin,28.8947,64.4101,24.14,7,0,4.64,PK,1682004323
140,seven pagodas,12.6264,80.1722,31.03,84,4,6.7,IN,1682004323
141,acajutla,13.5928,-89.8275,29.8,62,100,1.37,SV,1682004324
142,cill airne,52.05,-9.5167,15.03,47,0,8.23,IE,1682004324
143,qarqaraly,49.4058,75.4742,-0.04,40,43,5.64,KZ,1682004325
144,yaren,-0.5472,166.916,28.27,76,100,4.55,NR,1682004326
145,cambria,35.5641,-121.0808,13.61,77,11,2.39,US,1682004326
146,ciudad lazaro cardenas,17.9583,-102.2,27.52,62,40,0.49,MX,1682004054
147,tangalle,6.024,80.7911,29.09,82,98,3.67,LK,1682004207
148,kailua-kona,19.6406,-155.9956,21.98,82,0,2.68,US,1682004327
149,taroa,8.7058,171.2275,27.01,83,61,7.19,MH,1682004073
150,guerrero negro,27.9769,-114.0611,15.12,78,5,4.07,MX,1682004328
151,antsiranana,-12.2787,49.2917,27.42,74,40,4.12,MG,1682004328
152,ulladulla,-35.35,150.4667,15.18,73,100,2.49,AU,1682004329
153,key largo,25.0865,-80.4473,27.0,69,2,5.73,US,1682004287
154,kanata,45.3159,-75.8985,7.57,52,20,3.6,CA,1682004331
155,shivpuri,25.4333,77.65,31.14,15,89,3.53,IN,1682004332
156,ola,59.5833,151.2833,1.75,84,100,7.36,RU,1682004332
157,saipan,15.1355,145.701,27.39,100,40,7.2,MP,1682004333
158,pedernales,18.0384,-71.744,27.81,62,0,1.99,DO,1682004333
159,ribeira grande,38.5167,-28.7,17.22,63,40,10.8,PT,1682004333
160,cannonvale,-20.2833,148.7,25.66,70,3,7.15,AU,1682004334
161,fortaleza,-3.7227,-38.5247,31.07,66,40,4.63,BR,1682004300
162,pasuquin,18.3328,120.6177,28.97,79,75,1.54,PH,1682004335
163,sao gabriel da cachoeira,-0.1303,-67.0892,30.89,89,40,4.12,BR,1682004336
164,rockland,41.1668,-74.0496,13.5,50,92,0.96,US,1682004337
165,melilla,35.2937,-2.9383,23.11,64,20,3.09,ES,1682004337
166,pacific grove,36.6177,-121.9166,12.45,74,0,2.68,US,1682004338
167,mahibadhoo,3.7833,72.9667,28.94,66,8,0.85,MV,1682004338
168,yakymivka,46.6897,35.1536,14.52,74,89,3.2,UA,1682004338
169,pangai,-19.8,-174.35,25.98,77,70,11.82,TO,1682004339
170,cabo san lucas,22.8909,-109.9124,24.78,84,20,0.45,MX,1682004338
171,happy valley-goose bay,53.3168,-60.3315,4.17,75,100,4.12,CA,1682004339
172,thompson,55.7435,-97.8558,-2.91,63,100,4.12,CA,1682004140
173,tamala,52.541,43.2515,13.89,37,100,2.78,RU,1682004340
174,ain beida,35.7964,7.3928,20.72,43,77,7.9,DZ,1682004340
175,nakhon phanom,17.3333,104.4167,30.82,45,65,1.38,TH,1682004341
176,qina,26.1642,32.7267,33.86,14,19,8.52,EG,1682004341
177,marsabit,2.3284,37.9899,24.26,54,100,5.33,KE,1682004341
178,san fernando de apure,7.8878,-67.4724,32.38,48,100,4.83,VE,1682004341
179,chonchi,-42.6128,-73.8092,12.29,84,100,1.21,CL,1682004342
180,ushuaia,-54.8,-68.3,8.81,43,20,6.17,AR,1682004342
181,sungai raya,0.7,108.9,26.43,79,66,1.27,ID,1682004343
182,kone,-21.0595,164.8658,22.03,89,5,1.06,NC,1682004343
183,marka,1.7159,44.7717,28.97,71,27,5.99,SO,1682004343
184,kumeny,58.1089,49.9161,10.56,43,93,2.54,RU,1682004344
185,boa vista,2.8197,-60.6733,31.99,51,75,6.17,BR,1682004344
186,island harbour,50.724,-1.2758,16.02,46,10,4.47,GB,1682004344
187,bayan,46.0833,127.4,4.83,12,29,11.12,CN,1682004344
188,siracusa,37.0881,15.2792,17.65,81,100,2.88,IT,1682004345
189,kirensk,57.7853,108.1119,-6.73,89,100,1.81,RU,1682004345
190,kapiri mposhi,-13.9652,28.6809,21.4,70,83,2.94,ZM,1682004345
191,acarau,-2.8856,-40.12,29.58,67,96,2.76,BR,1682004345
192,betioky,-23.7167,44.3833,23.7,69,45,2.85,MG,1682004346
193,i-n-salah,27.1935,2.4607,33.89,10,0,9.09,DZ,1682004346
194,charlottetown,46.2352,-63.1267,8.76,92,100,6.17,CA,1682004346
195,nadym,65.5333,72.5167,-2.65,93,100,3.75,RU,1682004346
196,el-tor,28.2364,33.6254,26.76,41,9,11.13,EG,1682004347
197,puerto leguizamo,-0.1934,-74.7819,29.05,71,100,1.63,CO,1682004347
198,totness,5.8833,-56.3167,27.74,77,100,3.89,SR,1682004323
199,boulsa,12.6675,-0.5758,40.99,11,34,3.32,BF,1682004347
200,punta arenas,-53.15,-70.9167,6.06,93,100,4.63,CL,1682004348
201,rongelap,11.1635,166.8941,25.97,84,100,7.44,MH,1682004348
202,port saint john's,-31.6229,29.5448,26.97,52,6,4.26,ZA,1682004348
203,hotan,37.0997,79.9269,11.24,48,100,0.72,CN,1682004348
204,shingu,33.7333,135.9833,16.06,90,100,1.45,JP,1682004349
205,keflavik,64.0049,-22.5624,10.95,71,75,6.17,IS,1682004349
206,grudki,53.0949,23.6685,18.47,50,93,5.52,PL,1682004349
207,north bend,43.4065,-124.2243,7.82,87,100,3.6,US,1682004350
208,masterton,-40.9597,175.6575,16.6,96,100,0.72,NZ,1682004350
209,aasiaat,68.7098,-52.8699,-9.27,85,73,4.07,GL,1682004350
210,lebu,-37.6167,-73.65,15.81,75,75,2.57,CL,1682004350
211,hami,42.8,93.45,12.51,11,32,2.26,CN,1682004351
212,ghat,24.9647,10.1728,34.63,8,73,6.6,LY,1682004351
213,khawr fakkan,25.3313,56.342,31.03,40,99,5.69,AE,1682004351
214,dalandzadgad,43.5708,104.425,6.58,10,100,4.61,MN,1682004352
215,manta,-0.95,-80.7333,28.88,74,40,0.0,EC,1682004208
216,bandarbeyla,9.4942,50.8122,28.31,68,45,4.99,SO,1682004352
217,qaqortoq,60.7167,-46.0333,2.46,75,28,1.83,GL,1682004353
218,enewetak,11.3474,162.3373,24.87,91,100,6.86,MH,1682004353
219,sao jose da coroa grande,-8.8978,-35.1478,30.26,59,41,4.21,BR,1682004353
220,ushtobe,45.2514,77.9838,6.26,29,75,6.38,KZ,1682004353
221,boyolangu,-8.1181,111.8935,25.06,91,56,1.06,ID,1682004354
222,bedesa,8.9,40.7833,21.43,68,77,2.86,ET,1682004354
223,potiskum,11.7091,11.0694,40.51,12,12,1.98,NG,1682004355
224,tazacorte,28.629,-17.9293,21.54,69,75,3.58,ES,1682004355
225,katsuura,35.1333,140.3,17.87,83,36,9.99,JP,1682004355
226,seichamps,48.7111,6.2619,12.16,67,100,2.57,FR,1682004355
227,egilsstadir,65.2653,-14.3948,15.95,29,0,4.63,IS,1682004356
228,sainte-menehould,49.0833,4.9,7.52,89,100,2.46,FR,1682004356
229,buka,40.8108,69.1986,14.63,39,10,2.69,UZ,1682004356
230,tekeli,44.83,78.8239,1.11,73,100,1.48,KZ,1682004356
231,badger,64.8,-147.5333,-5.07,77,0,2.57,US,1682004356
232,huarmey,-10.0681,-78.1522,25.11,78,91,3.65,PE,1682004357
233,lautoka,-17.6167,177.4667,23.92,94,20,2.06,FJ,1682004357
234,baker city,44.7749,-117.8344,-0.23,90,0,0.0,US,1682004059
235,college,64.8569,-147.8028,-5.03,73,20,2.57,US,1682004302
236,angaur state,6.906,134.13,28.71,77,20,4.15,PW,1682004258
237,bamyan,34.75,67.25,3.83,40,19,4.64,AF,1682004358
238,sisimiut,66.9395,-53.6735,-1.76,64,87,1.79,GL,1682004358
239,nurmes,63.5421,29.1397,3.34,100,100,2.42,FI,1682004359
240,pagar alam,-4.0167,103.2667,21.1,98,100,1.1,ID,1682004359
241,beli,7.8587,10.9719,36.95,36,65,3.15,NG,1682004359
242,kruisfontein,-34.0033,24.7314,17.71,73,60,16.21,ZA,1682004359
243,karmaskaly,54.3709,56.1837,11.95,53,84,2.44,RU,1682004360
244,jayapura,-2.5333,140.7,23.66,87,99,0.91,ID,1682004360
245,fagaras,45.85,24.9667,12.68,67,80,2.27,RO,1682004360
246,uturoa,-16.7333,-151.4333,27.78,80,100,6.8,PF,1682004361
247,nuku'alofa,-21.1333,-175.2,25.19,83,40,5.14,TO,1682004362
248,dimbokro,6.6451,-4.7048,36.38,37,57,2.61,CI,1682004362
249,longonjo,-12.9067,15.2533,22.66,74,100,1.38,AO,1682004362
250,yei,4.095,30.6779,31.03,42,100,1.55,SS,1682004363
251,rawah,34.4816,41.9093,23.81,47,12,13.72,IQ,1682004363
252,mandal,25.45,74.5667,31.14,17,95,6.2,IN,1682004363
253,mana,5.6592,-53.7767,27.6,80,96,4.23,GF,1682004364
254,ligny-en-barrois,48.6886,5.3254,20.3,90,100,4.36,FR,1682004364
255,santo anastacio,-21.8383,-51.6103,23.2,61,1,2.79,BR,1682004364
256,coquimbo,-29.9533,-71.3436,15.85,82,100,2.57,CL,1682004365
257,san martin,-33.081,-68.4681,20.3,28,6,6.21,AR,1682004365
258,den burg,53.0542,4.7972,12.19,71,40,9.77,NL,1682004365
259,la passe,45.5549,-0.8967,19.13,54,99,7.06,FR,1682004365
260,suntar,62.1444,117.6319,-10.77,93,71,1.98,RU,1682004366
261,touros,-5.1989,-35.4608,30.49,60,92,5.37,BR,1682004155
262,hammerfest,70.6634,23.6821,4.25,100,75,12.86,NO,1682004366
263,howard springs,-12.497,131.047,25.95,93,93,2.4,AU,1682004366
264,livingston,55.9029,-3.5226,14.21,65,0,7.2,GB,1682004276
265,belyy yar,53.6039,91.3903,-2.06,59,0,4.0,RU,1682004367
266,woodward,36.4337,-99.3904,13.87,34,0,7.2,US,1682004367
267,tura,25.5198,90.2201,27.82,39,0,4.38,IN,1682004368
268,jaicos,-7.3592,-41.1378,37.0,32,96,0.97,BR,1682004368
269,mando,10.7167,6.5667,40.69,13,15,2.08,NG,1682004368
270,ayorou,14.7308,0.9174,42.27,4,36,2.36,NE,1682004368
271,port alfred,-33.5906,26.891,20.1,72,100,4.92,ZA,1682004369
272,bani suwayf,29.0744,31.0979,26.98,17,0,6.95,EG,1682004369
273,midelt,32.6852,-4.7451,19.33,36,32,7.07,MA,1682004369
274,kimbe,-5.5502,150.1429,24.45,92,100,1.26,PG,1682004369
275,carnarvon,-24.8667,113.6333,24.18,44,47,4.45,AU,1682004369
276,ribeira brava,32.65,-17.0667,21.35,82,62,3.86,PT,1682004370
277,dapaong,10.8639,0.205,39.18,19,52,2.51,TG,1682004370
278,brookings,44.3114,-96.7984,2.32,96,100,4.63,US,1682004370
279,nagqu,31.5,92.0,2.62,48,98,8.04,CN,1682004371
280,gasteiz / vitoria,42.85,-2.6667,21.86,40,0,5.36,ES,1682004371
281,mount pearl,47.5166,-52.7813,4.92,94,100,8.23,CA,1682004371
282,kochubeyevskoye,44.6442,41.8453,13.86,85,100,6.23,RU,1682004372
283,acapulco de juarez,16.8634,-99.8901,27.9,69,40,2.06,MX,1682004372
284,constantia,44.1833,28.65,11.5,77,99,6.71,RO,1682004372
285,gurjaani,41.7429,45.8011,20.54,52,27,0.65,GE,1682004372
286,sandnessjoen,66.0217,12.6316,10.29,91,75,7.2,NO,1682004372
287,labytnangi,66.6572,66.4183,-0.57,95,98,4.19,RU,1682004373
288,waingapu,-9.6567,120.2641,24.22,76,7,3.78,ID,1682004373
289,queenstown,-31.8976,26.8753,21.66,34,100,14.32,ZA,1682004373
290,san luis de la loma,17.2706,-100.8939,32.65,20,67,1.61,MX,1682004373
291,new norfolk,-42.7826,147.0587,15.72,77,100,0.89,AU,1682004374
292,khandyga,62.6667,135.6,-10.71,97,57,0.9,RU,1682004374
293,hithadhoo,-0.6,73.0833,28.69,72,99,2.65,MV,1682004374
294,olonets,60.9847,32.9698,3.29,97,98,1.94,RU,1682004374
295,wenzhou,27.9994,120.6668,19.9,86,100,0.97,CN,1682004375
296,arraial do cabo,-22.9661,-42.0278,26.98,61,20,10.8,BR,1682004375
297,portland,45.5234,-122.6762,5.61,89,100,5.14,US,1682004268
298,machico,32.7,-16.7667,21.35,79,40,8.75,PT,1682004375
299,ancud,-41.8697,-73.8203,12.07,92,100,1.61,CL,1682004376
300,quellon,-43.1167,-73.6167,12.14,87,75,2.06,CL,1682004376
301,rustaq,23.3908,57.4244,28.73,34,85,2.62,OM,1682004376
302,suva,-18.1416,178.4415,23.71,100,40,0.0,FJ,1682004377
303,fort bragg,35.139,-79.006,27.47,33,0,4.63,US,1682004377
304,codrington,-38.2667,141.9667,12.88,95,100,2.95,AU,1682004377
305,praia da vitoria,38.7333,-27.0667,18.14,72,40,9.64,PT,1682004258
306,galeana,24.8333,-100.0667,23.6,24,87,1.82,MX,1682004378
307,forbes,-33.3833,148.0167,12.73,75,0,2.21,AU,1682004378
308,belmonte,-15.8631,-38.8828,33.73,53,31,3.33,BR,1682004379
309,balabac,7.9868,117.0645,27.19,82,41,1.42,PH,1682004379
310,mangai,-4.05,19.5333,27.55,67,100,0.56,CD,1682004379
311,reggane,26.7158,0.1714,34.45,11,0,7.29,DZ,1682004379
312,jinsha,32.0898,121.0735,17.77,93,0,2.85,CN,1682004380
313,kavaratti,10.5669,72.642,29.05,69,10,2.65,IN,1682004380
314,caleta de carquin,-11.0925,-77.6267,24.16,78,92,3.73,PE,1682004380
315,tughyl,47.7252,84.2063,2.39,48,34,2.88,KZ,1682004381
316,springs,-26.25,28.4,21.43,50,3,4.4,ZA,1682004381
317,inirida,3.8653,-67.9239,26.45,80,98,2.02,CO,1682004381
318,mil'kovo,55.6078,37.7956,16.34,41,64,4.34,RU,1682004381
319,selfoss,63.9331,-20.9971,10.22,67,9,4.62,IS,1682004382
320,forster,-32.1667,152.5167,14.52,95,100,6.28,AU,1682004382
321,rosario do sul,-30.2583,-54.9142,18.46,44,0,3.64,BR,1682004382
322,manadhoo,5.7667,73.3833,28.5,68,12,0.89,MV,1682004382
323,weno,7.4515,151.8468,25.97,94,100,2.06,FM,1682004383
324,lesnoy,57.6198,63.0784,5.07,86,81,3.33,RU,1682004383
325,bozuyuk,39.9078,30.0367,12.19,64,85,4.29,TR,1682004383
326,mbaiki,3.8678,17.9892,31.43,49,90,1.97,CF,1682004383
327,korla,41.7597,86.1469,12.24,46,72,3.01,CN,1682004384
328,sitka,57.0531,-135.33,5.94,75,40,1.54,US,1682004384
329,leava,-14.3,-178.1667,27.77,79,25,4.54,WF,1682004384
330,palmer,42.1584,-72.3287,12.89,46,20,2.06,US,1682004384
331,imbituba,-28.24,-48.6703,19.92,39,0,2.37,BR,1682004385
332,yuzhno-kurilsk,44.0306,145.8556,4.94,95,100,5.7,RU,1682004385
333,urangan,-25.3,152.9,21.92,77,60,8.91,AU,1682004385
334,camana,-16.6228,-72.7111,25.04,59,18,2.68,PE,1682004385
335,naze,28.3667,129.4833,20.51,95,100,1.18,JP,1682004386
336,gojra,31.1487,72.6866,23.69,42,23,4.53,PK,1682004386
337,kill devil hills,36.0307,-75.676,26.0,49,0,4.12,US,1682004386
338,xilin hot,43.9667,116.0333,2.29,15,100,4.31,CN,1682004387
339,samana,19.2056,-69.3369,29.12,74,40,3.6,DO,1682004387
340,nyrob,60.733,56.7202,4.55,84,99,3.28,RU,1682004387
341,torquay,50.4638,-3.5143,15.71,58,2,1.79,GB,1682004387
342,kandahar,31.0,65.75,20.66,14,0,3.44,AF,1682004388
343,china,25.7,-99.2333,26.24,72,86,4.27,MX,1682004388
344,boende,-0.2167,20.8667,34.02,43,83,0.87,CD,1682004388
345,port douglas,-16.4833,145.4667,24.5,80,17,4.92,AU,1682004388
346,seymour,38.9592,-85.8903,23.42,44,100,2.24,US,1682004313
347,ipora,-16.4419,-51.1178,24.96,62,20,4.55,BR,1682004389
348,eduardo castex,-35.915,-64.2945,24.19,33,30,7.09,AR,1682004311
349,labrador city,52.9463,-66.9114,0.95,75,100,2.57,CA,1682004389
350,waraseoni,21.75,80.0333,29.34,37,100,6.43,IN,1682004389
351,tlalixtac de cabrera,17.0667,-96.65,17.68,72,20,0.0,MX,1682004390
352,gamba,-2.65,10.0,28.36,75,100,3.96,GA,1682004390
353,linhares,-19.3911,-40.0722,34.83,44,16,1.95,BR,1682004115
354,mirny,62.5353,113.9611,-15.21,97,96,1.42,RU,1682004391
355,nogliki,51.8333,143.1667,-0.97,95,100,6.85,RU,1682004391
356,palmas,-10.2128,-48.3603,31.93,58,40,2.57,BR,1682004180
357,narrabri,-30.3167,149.7833,16.4,83,17,1.34,AU,1682004391
358,brooks,50.5834,-111.8851,-2.76,86,100,3.6,CA,1682004392
359,walvis bay,-22.9575,14.5053,18.94,76,13,10.52,NA,1682004392
360,el porvenir,13.7617,-87.3458,26.63,40,100,1.51,HN,1682004392
361,hamilton,39.1834,-84.5333,23.97,46,100,6.17,US,1682004392
362,san antonio de pale,-1.4014,5.6325,26.86,79,76,3.29,GQ,1682004393
363,al muwayh,22.4333,41.7583,28.61,27,0,2.66,SA,1682004393
364,naracoorte,-36.9579,140.7383,12.64,92,39,1.41,AU,1682004393
365,kani keli,-12.9536,45.1033,28.59,73,7,3.72,YT,1682004393
366,melito di porto salvo,37.9222,15.7714,18.74,59,99,5.66,IT,1682004394
367,kerikeri,-35.2268,173.9474,19.95,92,100,1.79,NZ,1682004394
368,aitape,-3.1374,142.3475,26.34,84,100,2.09,PG,1682004394
369,nuriootpa,-34.4833,139.0,11.94,79,47,1.69,AU,1682004318
370,asau,46.4333,26.4,10.71,91,100,2.35,RO,1682004395
371,lamu,-2.2717,40.902,29.12,73,63,3.73,KE,1682004395
372,kirakira,-10.4544,161.9205,26.15,82,94,1.5,SB,1682004395
373,freetown,8.484,-13.2299,29.84,70,40,3.09,SL,1682004396
374,mejit,10.2753,170.8646,26.55,81,95,7.61,MH,1682004396
375,sarupathar,26.1984,93.8094,28.03,50,48,3.08,IN,1682004396
376,cooper's town,26.8667,-77.5167,23.29,76,21,8.17,BS,1682004396
377,taltal,-25.4,-70.4833,18.18,81,53,1.9,CL,1682004397
378,wabag,-5.4781,143.7021,12.91,98,100,1.36,PG,1682004397
379,nouadhibou,20.931,-17.0347,21.99,64,89,8.75,MR,1682004397
380,luderitz,-26.6481,15.1594,15.21,88,35,14.0,NA,1682004397
381,mitu,1.1983,-70.1733,30.39,65,94,1.22,CO,1682004398
382,longyearbyen,78.2186,15.6401,-12.09,61,20,3.09,SJ,1682004398
383,kzyltu,53.6364,72.3414,5.6,33,25,3.39,KZ,1682004398
384,wenling,28.3669,121.36,16.22,91,6,3.26,CN,1682004398
385,palikir - national government center,6.9248,158.1611,24.41,94,100,0.0,FM,1682004398
386,batangafo,7.3008,18.2833,39.74,21,94,1.13,CF,1682004399
387,laohekou,32.3858,111.6678,19.96,64,100,8.9,CN,1682004399
388,vila franca do campo,37.7167,-25.4333,16.23,63,13,8.03,PT,1682004399
389,talnakh,69.4865,88.3972,-12.66,96,99,2.76,RU,1682004400
390,barra de santo antonio,-9.4047,-35.5072,33.6,60,18,5.36,BR,1682004400
391,borgonovo valtidone,45.0144,9.4435,17.97,80,40,6.78,IT,1682004400
392,dhidhdhoo,6.8833,73.1,28.8,70,100,1.46,MV,1682004400
393,lefka,35.1106,32.8506,16.16,59,0,6.86,CY,1682004401
394,amble,55.3333,-1.5833,12.39,77,1,6.17,GB,1682004401
395,zyryanovsk,49.7386,84.2719,-11.54,94,7,0.91,KZ,1682004401
396,kingston,17.997,-76.7936,30.69,68,2,1.79,JM,1682004373
397,mahajanga,-15.7167,46.3167,30.01,66,20,1.03,MG,1682004401
398,greymouth,-42.4667,171.2,17.05,96,100,10.23,NZ,1682004402
399,ville platte,30.688,-92.2715,24.38,74,10,6.32,US,1682004402
400,fort st. john,56.2499,-120.8529,0.94,75,100,5.14,CA,1682004314
401,bukama,-9.2,25.85,27.51,81,36,0.38,CD,1682004402
402,senanga,-16.1167,23.2667,29.86,35,88,1.38,ZM,1682004403
403,kidal,18.4411,1.4078,39.44,5,1,3.12,ML,1682004403
404,nema,57.5067,50.5011,10.42,43,74,1.0,RU,1682004403
405,angicos,-5.6656,-36.6011,32.89,45,100,1.22,BR,1682004403
406,aurora,39.7294,-104.8319,5.4,29,20,8.75,US,1682004184
407,pinarbasi,38.7229,36.3931,7.42,82,91,5.68,TR,1682004324
408,keminmaa,65.8596,24.8228,11.87,50,0,3.09,FI,1682004404
409,fale old settlement,-9.3852,-171.2468,28.05,73,7,1.11,TK,1682004404
410,yuxia,34.0615,108.6291,20.34,42,86,1.19,CN,1682004404
411,kalispell,48.1958,-114.3129,3.15,84,75,2.24,US,1682004405
412,tolanaro,-25.0319,46.9987,25.04,83,40,5.14,MG,1682004405
413,shache,38.4167,77.2406,11.28,41,100,1.57,CN,1682004405
414,sinop,41.7711,34.8709,9.24,96,100,1.37,TR,1682004406
415,verkhnevilyuysk,63.4453,120.3167,-9.11,96,66,2.51,RU,1682004406
416,san gabriel,34.0961,-118.1058,18.3,51,0,0.0,US,1682004229
417,shohimardon,39.9839,71.8028,10.43,70,81,0.91,UZ,1682004406
418,pailon,-17.65,-62.75,26.82,62,39,4.21,BO,1682004406
419,clifton,40.8584,-74.1638,15.65,47,20,3.09,US,1682004264
420,kununurra,-15.7667,128.7333,25.99,47,38,4.12,AU,1682004407
421,margate,51.3813,1.3862,8.5,81,78,4.47,GB,1682004407
422,jenzan,36.2408,128.2975,15.52,92,0,1.68,KR,1682004408
423,miles city,46.4083,-105.8406,-1.46,64,100,12.35,US,1682004408
424,callao,-12.0667,-77.15,25.16,65,75,4.12,PE,1682004408
425,cabrobo,-8.5142,-39.31,33.59,38,22,0.63,BR,1682004408
426,pasni,25.2631,63.471,26.36,73,0,7.72,PK,1682004408
427,mao,39.8885,4.2658,17.31,77,20,4.63,ES,1682004409
428,alofi,-19.0595,-169.9187,23.94,94,100,5.66,NU,1682004409
429,saint-pierre,-21.3393,55.4781,26.82,69,0,0.51,RE,1682004409
430,lhokseumawe,5.1801,97.1507,26.94,80,100,1.13,ID,1682004409
431,tralee,52.2704,-9.7026,15.14,47,0,8.23,IE,1682004410
432,dzuunmod,48.2199,97.3744,-7.28,55,96,1.41,MN,1682004410
433,east london,-33.0153,27.9116,20.52,60,0,7.2,ZA,1682004410
434,hadibu,12.65,54.0333,28.82,68,43,2.1,YE,1682004411
435,zemio,5.0314,25.1361,28.27,49,100,2.01,CF,1682004411
436,setubal,38.5244,-8.8882,23.92,51,31,5.58,PT,1682004412
437,namdrik,5.5994,168.1028,27.77,79,82,4.07,MH,1682004412
438,aginskoye,51.1,114.53,-7.52,38,1,8.89,RU,1682004412
439,pisco,-13.7,-76.2167,25.03,69,0,2.06,PE,1682004413
440,tenno,39.9,139.9667,11.69,90,46,8.54,JP,1682004413
441,ninotsminda,41.2646,43.5916,11.32,63,69,2.73,GE,1682004413
442,san mateo ixtatan,15.8319,-91.4781,19.49,24,57,1.6,GT,1682004413
443,brisas de zicatela,15.8369,-97.0419,30.29,74,0,0.0,MX,1682004413
444,grenaa,56.4158,10.8783,15.12,66,0,7.09,DK,1682004414
445,trincomalee,8.5711,81.2335,28.04,78,76,2.37,LK,1682004414
446,kincardine,56.0667,-3.7167,15.15,48,0,6.61,GB,1682004414
447,rangkasbitung,-6.3591,106.2494,29.05,95,100,0.83,ID,1682004415
448,celestun,20.8667,-90.4,26.75,74,0,4.85,MX,1682004415
449,knoxville,35.9606,-83.9207,24.58,46,0,0.45,US,1682004253
450,orange,33.7,-117.7675,18.61,64,0,1.54,US,1682004415
451,apia,-13.8333,-171.7667,25.95,78,100,6.04,WS,1682004416
452,kijang,35.2442,129.2139,16.85,69,100,0.99,KR,1682004416
453,ouesso,1.6136,16.0517,29.24,63,93,0.19,CG,1682004416
454,arawa,-6.2132,155.5367,24.91,89,100,0.69,PG,1682004416
455,tai'an,36.1853,117.12,14.02,31,96,5.89,CN,1682004417
456,kutum,14.2,24.6667,34.5,7,0,4.23,SD,1682004417
457,ulsteinvik,62.3432,5.8487,17.5,73,20,1.34,NO,1682004417
458,petrovsk-zabaykal'skiy,51.273,108.843,-12.39,77,5,1.08,RU,1682004417
459,bariri,-22.0744,-48.7403,24.41,46,0,2.49,BR,1682004418
460,olyokminsk,60.3736,120.4264,-5.78,82,40,3.46,RU,1682004418
461,corbie,49.9067,2.5068,9.81,71,100,6.17,FR,1682004418
462,cabedelo,-6.9811,-34.8339,31.37,70,94,3.28,BR,1682004418
463,hancheng,32.5186,112.3522,17.71,60,92,11.19,CN,1682004418
464,maitum,6.0392,124.4986,26.61,91,100,1.23,PH,1682004419
465,weyburn,49.6668,-103.8511,-0.88,93,100,7.2,CA,1682004382
466,vondrozo,-22.8167,47.2833,20.01,98,53,1.51,MG,1682004419
467,praya,14.9215,-23.5087,26.3,53,75,9.77,CV,1682004419
468,potosi,-19.5836,-65.7531,8.6,41,4,2.15,BO,1682004285
469,taoudenni,22.6783,-3.9836,35.32,13,100,7.74,ML,1682004420
470,virar,19.4667,72.8,30.05,65,0,4.6,IN,1682004420
471,okhotsk,59.3833,143.3,-3.28,93,100,2.8,RU,1682004421
472,gweru,-19.45,29.8167,25.55,30,10,0.34,ZW,1682004421
473,igarka,67.4667,86.5833,-11.28,97,88,2.44,RU,1682004421
474,geneina,13.45,22.45,38.42,7,0,2.19,SD,1682004421
475,kismayo,-0.3582,42.5454,28.59,75,89,5.87,SO,1682004422
476,ovalle,-30.5983,-71.2003,22.7,33,99,1.25,CL,1682004422
477,majene,-3.5403,118.9707,25.9,87,100,2.08,ID,1682004423
478,port augusta,-32.5,137.7667,15.02,65,0,3.53,AU,1682004423
479,chui,-33.6971,-53.4616,18.61,50,39,3.79,UY,1682004423
480,springbok,-29.6643,17.8865,14.63,51,90,7.91,ZA,1682004424
481,sirjan,29.452,55.6814,20.66,26,56,5.27,IR,1682004424
482,luena,-11.7833,19.9167,28.1,39,13,2.57,AO,1682004425
483,geraldton,-28.7667,114.6,15.23,58,67,3.09,AU,1682004171
484,el granada,37.5027,-122.4694,13.29,79,0,1.54,US,1682004425
485,arno,60.1167,18.6333,9.72,57,62,2.1,SE,1682004320
486,flin flon,54.7682,-101.865,-2.09,59,100,6.17,CA,1682004426
487,remire-montjoly,4.9167,-52.2667,28.02,74,75,5.14,GF,1682004427
488,aransas pass,27.9095,-97.15,26.12,100,100,4.92,US,1682004427
489,karratha,-20.7377,116.8463,25.14,53,4,2.9,AU,1682004427
490,kavieng,-2.5744,150.7967,27.53,73,99,1.54,PG,1682004428
491,sofo-birnin-gwari,11.0154,6.7804,39.43,12,49,2.81,NG,1682004428
492,kapit,2.0167,112.9333,24.13,94,100,0.45,MY,1682004428
493,saint-francois,46.4154,3.9054,16.49,39,0,1.03,FR,1682004429
494,ganjam,19.3833,85.0667,28.98,52,92,8.53,IN,1682004429
495,wahpeton,46.2652,-96.6059,1.63,100,100,3.6,US,1682004430
496,pacasmayo,-7.4006,-79.5714,24.58,83,100,3.48,PE,1682004430
497,dunedin,-45.8742,170.5036,9.89,93,100,1.33,NZ,1682004431
498,al qadarif,14.0349,35.3834,37.65,6,0,5.56,SD,1682004431
499,taizhou,32.4933,119.9106,14.28,94,0,3.5,CN,1682004237
500,road town,18.4167,-64.6167,29.02,58,40,5.14,VG,1682004432
501,gap,44.6667,6.0,5.73,80,99,1.93,FR,1682004433
502,kamaishi,39.2667,141.8833,15.14,87,100,4.18,JP,1682004433
503,los frentones,-26.4077,-61.4137,23.63,34,0,2.09,AR,1682004434
504,cabano,10.5869,122.7002,28.54,76,26,1.8,PH,1682004434
505,campo formoso,-10.5075,-40.3214,35.84,28,48,3.07,BR,1682004434
506,lebyazh'ye,55.2689,66.4947,5.95,41,73,3.13,RU,1682004435
507,villa gesell,-37.2639,-56.973,17.81,50,1,2.7,AR,1682004435
508,nzega,-2.479,29.5564,18.77,88,86,1.41,RW,1682004436
509,dodola,6.9833,39.1833,17.1,67,87,3.82,ET,1682004436
510,yola,9.2,12.4833,41.74,19,69,3.23,NG,1682004437
511,shigony,53.3875,48.6777,15.62,32,95,1.63,RU,1682004437
512,winnemucca,40.973,-117.7357,0.03,59,0,0.0,US,1682004335
513,souillac,-20.5167,57.5167,26.21,89,75,7.2,MU,1682004438
514,luau,-10.7073,22.2247,26.4,67,19,1.38,AO,1682004438
515,nago,26.5881,127.9761,23.47,92,100,4.77,JP,1682004438
516,el bauga,18.262,33.9081,38.14,6,2,5.46,SD,1682004439
517,vorkuta,67.5,64.0,-0.37,95,100,5.19,RU,1682004439
518,yarmouth,41.7057,-70.2286,13.87,57,0,4.92,US,1682004440
519,qarah bagh,34.9402,61.7759,14.17,27,0,3.86,AF,1682004440
520,pariaman,-0.619,100.12,26.03,87,100,1.25,ID,1682004440
521,berdigestyakh,62.0989,126.6992,-4.48,94,100,3.58,RU,1682004441
522,noumea,-22.2763,166.4572,25.56,99,19,1.1,NC,1682004441
523,embi,48.8264,58.1442,11.11,41,95,3.93,KZ,1682004442
524,cadale,2.7603,46.3222,29.26,68,56,5.14,SO,1682004442
525,san juan,-31.5375,-68.5364,25.53,17,1,5.34,AR,1682004442
526,vahdat,38.5563,69.0135,14.41,58,20,1.0,TJ,1682004444
527,safi,32.1667,-8.8333,22.26,42,100,7.46,MA,1682004444
528,yanbu,24.0891,38.0637,32.02,40,0,7.2,SA,1682004444
529,burang,30.25,81.1667,-2.19,96,97,2.91,CN,1682004445
530,aykhal,66.0,111.5,-15.9,100,49,1.4,RU,1682004445
531,toulepleu guere,6.574,-8.4259,34.97,38,100,1.13,CI,1682004446
532,sur,22.5667,59.5289,27.3,62,52,2.44,OM,1682004446
533,suzhou,31.3114,120.6181,16.54,82,0,2.86,CN,1682004225
534,sant lluis,39.8526,4.2594,17.22,77,20,4.63,ES,1682004447
535,petauke,-14.2426,31.3253,22.2,79,97,0.72,ZM,1682004447
536,manicore,-5.8092,-61.3003,25.97,94,40,2.06,BR,1682004447
537,shuangjiang,26.1547,109.7138,21.65,85,53,0.38,CN,1682004448
538,kayangel,8.0823,134.7173,29.02,75,25,5.11,PW,1682004258
539,norilsk,69.3535,88.2027,-12.54,94,97,2.43,RU,1682004449
540,kragero,58.8693,9.4149,11.33,57,21,0.96,NO,1682004449
541,ciudad fernandez,21.95,-100.0,25.07,61,87,0.49,MX,1682004450
542,carolina beach,34.0352,-77.8936,27.3,40,2,2.2,US,1682004374
543,la ronge,55.1001,-105.2842,-1.86,59,75,6.69,CA,1682004450
544,shahr-e kord,32.3256,50.8644,17.87,24,20,3.09,IR,1682004451
545,port-vila,-17.7338,168.3219,24.94,80,56,2.05,VU,1682004451
546,arteche,12.2645,125.4048,26.1,88,4,2.67,PH,1682004452
547,qadian,31.8178,75.3919,20.27,59,100,3.5,IN,1682004452
548,challapata,-18.9,-66.7667,12.29,41,8,2.43,BO,1682004452
549,puerto deseado,-47.7503,-65.8938,16.48,55,27,7.76,AR,1682004453
550,nova sintra,14.8667,-24.7167,19.55,79,52,10.37,CV,1682004453
551,lompoc,34.6391,-120.4579,16.58,54,40,5.36,US,1682004453
552,augusto correa,-1.0217,-46.635,25.64,94,100,0.35,BR,1682004454
553,kuta,-8.7233,115.1723,27.97,83,40,4.63,ID,1682004455
554,shuangyang,43.5242,125.6736,7.54,11,100,6.96,CN,1682004455
555,ta`u,-14.2336,-169.5144,28.07,79,100,9.1,AS,1682004456
556,novodvinsk,64.4165,40.8122,4.86,100,100,1.65,RU,1682004456
557,colipapa,9.4726,122.5616,28.02,78,25,0.24,PH,1682004457
558,taunggyi,20.7833,97.0333,21.83,37,0,1.37,MM,1682004457
559,jijiga,9.35,42.8,21.91,60,79,3.4,ET,1682004458
560,katsuren-haebaru,26.3369,127.8719,23.43,92,75,5.66,JP,1682004458
561,maintirano,-18.0667,44.0167,27.24,79,52,4.02,MG,1682004458
562,horta,38.5333,-28.6333,16.8,73,40,10.8,PT,1682004459
563,danilov,58.1908,40.1717,11.05,46,99,2.26,RU,1682004459
564,ewo,-0.8725,14.8206,33.1,46,97,1.1,CG,1682004460
565,malango,-2.9627,119.9001,20.2,99,100,0.66,ID,1682004460
566,shiguai,40.7058,110.2856,2.44,83,100,2.76,CN,1682004461
567,nar'yan-mar,67.6713,53.087,-1.3,93,97,3.75,RU,1682004461
568,sola,-13.8833,167.55,27.27,76,79,2.68,VU,1682004461
569,mesquite,32.7668,-96.5992,25.23,76,100,5.14,US,1682004462
570,ambovombe,-25.1667,46.0833,23.47,82,26,5.75,MG,1682004462
571,waddan,29.1614,16.139,33.41,9,97,8.07,LY,1682004462
572,lithgow,-33.4833,150.15,9.13,91,95,1.95,AU,1682004463
573,chongqing,29.5628,106.5528,25.68,68,0,4.0,CN,1682004463
574,yeniseysk,58.4497,92.1703,-8.76,95,94,0.76,RU,1682004463
575,hong kong,22.2855,114.1577,25.21,93,71,8.05,HK,1682004269
576,magistral'nyy,56.1725,107.4458,-7.08,84,100,1.35,RU,1682004464
577,tafuna,-14.3358,-170.72,27.97,89,75,4.63,AS,1682004464
578,puerto armuelles,8.2833,-82.8667,30.99,60,24,0.91,PA,1682004464
579,kargasok,59.0556,80.8572,-1.15,99,100,2.08,RU,1682004465
580,polyarnyy,69.1989,33.4478,2.37,99,99,6.08,RU,1682004465
581,rio grande,-32.035,-52.0986,21.06,54,28,5.92,BR,1682004465
582,ponta delgada,37.7333,-25.6667,16.4,67,20,10.8,PT,1682004465
583,bogande,12.9714,-0.1436,41.37,7,44,3.25,BF,1682004466
584,shar,49.5886,81.0453,-1.94,59,0,3.5,KZ,1682004466
585,skare,55.3833,13.05,15.99,62,1,9.9,SE,1682004466
586,tonj,7.2737,28.6822,39.36,18,93,3.29,SS,1682004467
587,prado,-17.3411,-39.2208,31.9,59,6,3.7,BR,1682004467
