City_ID,City,Latitude,Longitude,Max Temp,Humidity,Cloudiness,Wind Speed,Country,Date
0,ribeira grande,38.5167,-28.7,16.54,88,75,11.32,PT,1682092687
1,thompson,55.7435,-97.8558,-1.91,46,20,6.17,CA,1682092687
2,grytviken,-54.2811,-36.5092,2.06,77,10,3.73,GS,1682092687
3,bredasdorp,-34.5322,20.0403,14.16,54,100,2.5,ZA,1682092688
4,hawaiian paradise park,19.5933,-154.9731,22.24,95,20,0.0,US,1682092688
5,at taj,24.2049,23.2857,31.05,9,0,1.5,LY,1682092688
6,ust-nera,64.5667,143.2,-6.7,97,100,1.87,RU,1682092689
7,vorgashor,67.5833,63.95,-5.57,96,99,2.89,RU,1682092689
8,fuerte olimpo,-21.0415,-57.8738,27.13,43,2,2.17,PY,1682092690
9,port-aux-francais,-49.35,70.2167,4.64,66,45,10.27,TF,1682092690
10,mandera,3.9366,41.867,34.35,39,96,1.71,KE,1682092690
11,crucecita,-28.95,-58.9833,23.57,31,67,5.03,AR,1682092691
12,aldan,58.6031,125.3894,-7.18,94,100,2.08,RU,1682092691
13,puerto ayora,-0.7393,-90.3518,29.98,94,97,2.68,EC,1682092691
14,ulimang,7.6242,134.6421,27.83,79,82,4.41,PW,1682092691
15,road town,18.4167,-64.6167,28.05,65,40,4.63,VG,1682092691
16,as sulayyil,20.4607,45.5779,26.14,57,88,2.95,SA,1682092692
17,wailea,19.8858,-155.123,23.76,91,20,0.0,US,1682092692
18,lebu,-37.6167,-73.65,13.95,93,100,3.3,CL,1682092692
19,puerto natales,-51.7236,-72.4875,8.25,42,20,7.2,CL,1682092693
20,utrik,11.2278,169.8474,26.6,75,82,6.93,MH,1682092693
21,trenggalek,-8.05,111.7167,24.8,96,98,1.06,ID,1682092693
22,kodiak,57.79,-152.4072,-0.27,80,0,3.09,US,1682092693
23,adamstown,-25.066,-130.1015,24.54,75,100,3.86,PN,1682092694
24,alofi,-19.0595,-169.9187,21.94,88,48,2.57,NU,1682092648
25,khandyga,62.6667,135.6,-5.66,95,100,1.0,RU,1682092694
26,san patricio,28.017,-97.5169,24.93,60,23,3.17,US,1682092694
27,margaret river,-33.95,115.0667,14.25,91,65,3.36,AU,1682092695
28,saint-francois,46.4154,3.9054,18.71,61,20,3.09,FR,1682092631
29,basoko,1.2391,23.616,26.61,75,100,3.14,CD,1682092695
30,forster,-32.1667,152.5167,14.65,100,59,4.69,AU,1682092695
31,labrador city,52.9463,-66.9114,-0.05,74,100,0.0,CA,1682092696
32,edinburgh of the seven seas,-37.0676,-12.3116,18.29,93,100,7.04,SH,1682092696
33,varzea grande,-15.6467,-56.1325,25.93,57,0,1.54,BR,1682092405
34,albany,42.6001,-73.9662,21.46,40,52,1.79,US,1682092696
35,waitangi,-43.9535,-176.5597,16.01,94,100,3.13,NZ,1682092697
36,dudinka,69.4058,86.1778,-6.32,91,100,7.2,RU,1682092697
37,vernon,50.2581,-119.2691,8.12,80,92,0.51,CA,1682092424
38,longyearbyen,78.2186,15.6401,-14.09,61,20,9.26,SJ,1682092698
39,iqaluit,63.7506,-68.5145,-2.15,86,100,3.6,CA,1682092698
40,ushuaia,-54.8,-68.3,5.79,70,75,12.86,AR,1682092698
41,necochea,-38.5473,-58.7368,20.64,35,100,9.12,AR,1682092698
42,zeya,53.75,127.2667,-2.04,69,93,2.99,RU,1682092699
43,sao joao da barra,-21.6403,-41.0511,26.05,57,37,4.51,BR,1682092699
44,badger,64.8,-147.5333,0.39,84,75,1.54,US,1682092699
45,vadso,70.0744,29.7487,0.49,74,75,3.09,NO,1682092700
46,machico,32.7,-16.7667,23.73,73,40,4.63,PT,1682092700
47,georgetown,5.4112,100.3354,28.97,84,20,2.06,MY,1682092682
48,mejit,10.2753,170.8646,26.87,74,98,6.53,MH,1682092700
49,dumai,1.6833,101.45,24.71,96,60,0.57,ID,1682092701
50,manokwari,-0.8667,134.0833,25.54,87,96,2.71,ID,1682092701
51,wailua homesteads,22.0669,-159.378,21.44,94,75,1.54,US,1682092701
52,jamestown,42.097,-79.2353,25.29,37,0,5.66,US,1682092454
53,marsabit,2.3284,37.9899,23.34,59,86,3.91,KE,1682092702
54,leh,34.1667,77.5833,-2.48,65,94,2.41,IN,1682092702
55,petropavlovsk-kamchatsky,53.0452,158.6483,0.33,93,100,11.0,RU,1682092703
56,blackmans bay,-43.0167,147.3167,15.07,83,99,2.78,AU,1682092703
57,aasiaat,68.7098,-52.8699,-2.99,68,99,2.44,GL,1682092703
58,chonchi,-42.6128,-73.8092,13.95,74,69,0.62,CL,1682092704
59,ribas do rio pardo,-20.4431,-53.7592,23.05,58,0,4.39,BR,1682092704
60,fairbanks,64.8378,-147.7164,0.45,81,75,1.54,US,1682092660
61,tiksi,71.6872,128.8694,-13.65,99,100,2.77,RU,1682092705
62,aykhal,66.0,111.5,-12.69,100,99,1.53,RU,1682092705
63,afaahiti,-17.75,-149.2833,24.93,80,100,8.0,PF,1682092705
64,nuuk,64.1835,-51.7216,-1.18,86,97,1.79,GL,1682092705
65,atafu village,-8.5421,-172.5159,28.08,77,25,4.06,TK,1682092706
66,pemba,-12.974,40.5178,28.39,83,40,4.12,MZ,1682092706
67,shahba,32.8551,36.629,14.74,45,13,5.69,SY,1682092706
68,cocula,20.3652,-103.8222,29.18,17,92,0.67,MX,1682092557
69,olonkinbyen,70.9221,-8.7187,-3.3,59,93,6.71,SJ,1682092707
70,richmond,37.5538,-77.4603,29.9,37,0,6.69,US,1682092707
71,iquique,-20.2208,-70.1431,22.02,65,21,3.63,CL,1682092707
72,hamilton,39.1834,-84.5333,20.64,80,75,3.09,US,1682092707
73,port lincoln,-34.7333,135.8667,15.98,81,0,3.06,AU,1682092708
74,arkhangel'sk,64.5401,40.5433,3.06,80,75,4.0,RU,1682092708
75,tadine,-21.55,167.8833,24.16,86,8,3.07,NC,1682092708
76,klaksvik,62.2266,-6.589,7.51,72,3,3.84,FO,1682092709
77,illizi,26.4833,8.4667,33.86,7,1,7.86,DZ,1682092709
78,chui,-33.6971,-53.4616,20.72,56,95,4.19,UY,1682092709
79,lerwick,60.1545,-1.1494,9.0,82,18,1.89,GB,1682092709
80,talnakh,69.4865,88.3972,-6.55,89,99,3.51,RU,1682092710
81,douz,33.4663,9.0203,22.32,48,51,12.81,TN,1682092710
82,bilibino,68.0546,166.4372,-12.22,84,44,1.8,RU,1682092710
83,opuwo,-18.0607,13.84,17.71,79,100,5.23,NA,1682092710
84,saldanha,-33.0117,17.9442,16.03,57,100,4.07,ZA,1682092710
85,remire-montjoly,4.9167,-52.2667,28.02,78,75,5.14,GF,1682092711
86,la passe,45.5549,-0.8967,20.13,54,100,4.1,FR,1682092711
87,gadzhiyevo,69.2551,33.3362,-0.44,82,100,2.74,RU,1682092711
88,dubois,38.3464,-86.8897,13.01,100,100,1.54,US,1682092711
89,polyarnyy,69.1989,33.4478,-0.03,80,100,2.8,RU,1682092711
90,invercargill,-46.4,168.35,11.68,82,99,0.89,NZ,1682092712
91,nemuro,43.3236,145.575,3.97,63,1,8.69,JP,1682092712
92,ancud,-41.8697,-73.8203,14.39,78,58,2.48,CL,1682092712
93,happy valley-goose bay,53.3168,-60.3315,3.17,70,75,5.14,CA,1682092712
94,carnarvon,-24.8667,113.6333,23.42,58,15,5.92,AU,1682092712
95,fale old settlement,-9.3852,-171.2468,28.36,76,37,4.8,TK,1682092713
96,mugia,43.1041,-9.2179,15.09,80,100,6.47,ES,1682092713
97,baruun-urt,46.6806,113.2792,-1.68,23,32,5.19,MN,1682092713
98,siilinjarvi,63.0833,27.6667,12.01,40,0,4.12,FI,1682092713
99,casper,42.8666,-106.3131,2.62,60,0,4.63,US,1682092681
100,saint-pierre,-21.3393,55.4781,27.82,69,75,1.54,RE,1682092714
101,barranca,-10.75,-77.7667,25.64,71,80,4.05,PE,1682092714
102,port alfred,-33.5906,26.891,17.32,74,27,2.24,ZA,1682092714
103,talodi,10.6325,30.3797,38.25,5,16,1.08,SD,1682092714
104,myeik,12.4333,98.6,27.28,81,6,2.23,MM,1682092715
105,inarajan village,13.2736,144.7484,27.54,85,85,7.2,GU,1682092715
106,pecos,31.4229,-103.4932,17.91,13,0,6.69,US,1682092716
107,geraldton,-28.7667,114.6,16.23,67,100,3.6,AU,1682092716
108,tazovsky,67.4667,78.7,-1.73,96,100,4.81,RU,1682092716
109,jabor,5.921,169.6434,27.97,79,49,5.03,MH,1682092717
110,boyolangu,-8.1181,111.8935,24.66,93,87,1.39,ID,1682092717
111,ritchie,-29.038,24.6028,22.56,16,0,2.86,ZA,1682092717
112,newman,37.3138,-121.0208,17.72,43,36,0.89,US,1682092717
113,the pas,53.8251,-101.2541,-0.99,55,0,4.12,CA,1682092718
114,hadibu,12.65,54.0333,28.73,69,22,3.32,YE,1682092718
115,constantia,44.1833,28.65,11.5,75,89,6.05,RO,1682092445
116,hithadhoo,-0.6,73.0833,29.41,72,14,3.38,MV,1682092718
117,kerikeri,-35.2268,173.9474,19.95,97,100,1.79,NZ,1682092718
118,bardai,11.65,7.2333,36.86,17,100,4.4,NG,1682092719
119,touros,-5.1989,-35.4608,29.73,58,100,4.69,BR,1682092701
120,qinzhou,21.95,108.6167,26.15,88,3,4.45,CN,1682092719
121,stanley,54.868,-1.6985,9.6,84,20,5.66,GB,1682092574
122,acworth,34.0659,-84.6769,25.69,51,0,2.57,US,1682092510
123,tralee,52.2704,-9.7026,11.14,71,100,3.6,IE,1682092720
124,tell city,37.9514,-86.7678,12.95,100,0,0.0,US,1682092577
125,weno,7.4515,151.8468,26.97,83,40,0.0,FM,1682092720
126,vila franca do campo,37.7167,-25.4333,15.23,81,89,6.91,PT,1682092720
127,severo-yeniseyskiy,60.3725,93.0408,-11.79,98,63,1.55,RU,1682092720
128,bethel,41.3712,-73.414,21.77,40,0,4.12,US,1682092721
129,ilulissat,69.2167,-51.1,-1.79,69,100,0.44,GL,1682092721
130,salinas,36.6777,-121.6555,17.94,64,0,2.06,US,1682092721
131,whitehorse,60.7161,-135.0538,0.61,93,40,2.57,CA,1682092682
132,udachny,66.4167,112.4,-15.93,99,96,1.57,RU,1682092721
133,lihue,21.9789,-159.3672,21.77,92,75,1.54,US,1682092543
134,uturoa,-16.7333,-151.4333,28.02,78,100,7.98,PF,1682092722
135,khuzdar,27.7384,66.6434,22.58,10,1,2.99,PK,1682092722
136,avarua,-21.2078,-159.775,20.03,100,98,0.51,CK,1682092722
137,mil'kovo,55.6078,37.7956,15.22,50,40,5.04,RU,1682092723
138,alamogordo,32.8995,-105.9603,16.43,12,0,7.72,US,1682092723
139,tabas,33.5959,56.9244,31.12,11,0,1.03,IR,1682092723
140,college,64.8569,-147.8028,0.44,80,75,1.54,US,1682092723
141,butterworth,5.3991,100.3638,29.03,84,20,2.06,MY,1682092723
142,dunedin,-45.8742,170.5036,11.56,10,3,1.93,NZ,1682092724
143,port elizabeth,-33.918,25.5701,17.16,70,0,6.69,ZA,1682092724
144,san angelo,31.4638,-100.437,20.5,33,0,6.17,US,1682092489
145,mermoz boabab,14.7065,-17.4758,26.31,73,75,5.14,SN,1682092724
146,griffith,41.5284,-87.4237,11.73,63,0,3.09,US,1682092725
147,dhankuta,26.9833,87.3333,20.51,34,53,2.56,NP,1682092725
148,comandante fontana,-25.3345,-59.6821,24.33,33,0,3.24,AR,1682092725
149,jorpeland,59.0225,6.0408,13.9,60,10,0.21,NO,1682092725
150,ulan bator,47.9077,106.8832,-3.93,42,40,2.0,MN,1682092619
151,darwin,-12.4611,130.8418,25.03,94,75,2.57,AU,1682092508
152,anadyr,64.75,177.4833,-12.72,92,40,2.0,RU,1682092726
153,tabou,4.423,-7.3528,30.06,68,89,5.38,CI,1682092726
154,aklera,24.4167,76.5667,31.49,15,41,3.13,IN,1682092726
155,san rafael,-34.6177,-68.3301,23.17,28,66,10.81,AR,1682092726
156,acapulco de juarez,16.8634,-99.8901,28.9,63,69,2.39,MX,1682092486
157,ballina,-28.8667,153.5667,16.55,74,90,5.89,AU,1682092727
158,grantsville,40.5999,-112.4644,8.74,34,100,0.0,US,1682092635
159,al majaridah,19.1236,41.9111,31.19,42,16,1.11,SA,1682092727
160,tazacorte,28.629,-17.9293,22.54,75,20,3.58,ES,1682092727
161,kapuskasing,49.4169,-82.4331,0.05,100,100,6.17,CA,1682092727
162,fortuna,40.5982,-124.1573,12.77,79,99,2.22,US,1682092728
163,holualoa,19.6228,-155.9522,21.91,89,40,2.57,US,1682092728
164,kyshtovka,56.555,76.6271,0.97,63,14,3.66,RU,1682092728
165,ringkobing,56.0901,8.244,14.4,37,0,5.66,DK,1682092728
166,eirunepe,-6.6603,-69.8736,24.07,93,100,0.63,BR,1682092729
167,luderitz,-26.6481,15.1594,17.62,60,4,8.09,NA,1682092729
168,tura,25.5198,90.2201,21.44,73,50,4.36,IN,1682092729
169,vodnyy,63.5046,53.4095,0.56,96,100,2.49,RU,1682092729
170,punta arenas,-53.15,-70.9167,6.06,65,40,10.29,CL,1682092563
171,safford,32.834,-109.7076,20.62,16,7,0.45,US,1682092690
172,sauri,11.7266,6.7837,37.55,17,98,3.05,NG,1682092730
173,ambovombe,-25.1667,46.0833,22.75,84,18,2.08,MG,1682092730
174,tosontsengel,48.7567,98.2839,-5.13,36,0,1.49,MN,1682092731
175,sao jose de ribamar,-2.5619,-44.0542,33.21,74,76,6.02,BR,1682092731
176,nema,57.5067,50.5011,9.44,48,71,1.99,RU,1682092731
177,ilukste,55.9775,26.2966,13.05,63,100,0.9,LV,1682092732
178,ban karon,7.8477,98.2985,28.95,80,78,4.65,TH,1682092732
179,mahebourg,-20.4081,57.7,26.25,78,20,4.12,MU,1682092732
180,port saint john's,-31.6229,29.5448,19.11,58,39,2.69,ZA,1682092732
181,walvis bay,-22.9575,14.5053,20.53,64,75,2.57,NA,1682092732
182,papatowai,-46.5619,169.4708,10.7,89,62,2.45,NZ,1682092732
183,olyokminsk,60.3736,120.4264,-7.24,92,99,1.47,RU,1682092733
184,nogliki,51.8333,143.1667,-0.88,97,100,8.6,RU,1682092733
185,vila velha,-20.3297,-40.2925,24.97,71,75,6.17,BR,1682092733
186,kingston,17.997,-76.7936,29.58,72,20,3.6,JM,1682092457
187,pangoa,-12.1167,-73.0,24.62,80,97,1.02,PE,1682092733
188,kudymkar,59.0173,54.656,7.92,51,88,1.64,RU,1682092734
189,san sebastian de la gomera,28.0916,-17.1133,24.2,53,40,6.17,ES,1682092734
190,nadym,65.5333,72.5167,-0.19,99,100,2.54,RU,1682092734
191,rio grande,-32.035,-52.0986,25.06,56,37,4.74,BR,1682092734
192,bikenibeu village,1.3673,173.1241,26.98,89,75,2.57,KI,1682092735
193,vail,32.0479,-110.712,22.33,14,0,0.45,US,1682092735
194,trujillo,-8.116,-79.03,25.98,65,94,2.06,PE,1682092735
195,navojoa,27.1,-109.4333,28.52,13,4,1.98,MX,1682092547
196,brookings,44.3114,-96.7984,0.03,86,100,9.26,US,1682092562
197,perryton,36.4,-100.8027,14.44,24,0,3.09,US,1682092570
198,siwa oasis,29.2041,25.5195,26.67,21,50,6.48,EG,1682092736
199,selfoss,63.9331,-20.9971,11.14,50,9,3.71,IS,1682092736
200,fort bragg,35.139,-79.006,27.89,37,0,3.6,US,1682092736
201,la sarre,48.8002,-79.1996,0.49,98,100,4.63,CA,1682092736
202,quartz hill,34.6453,-118.2181,21.2,37,0,1.54,US,1682092737
203,saint-philippe,-21.3585,55.7679,27.77,83,39,5.99,RE,1682092737
204,gizo,-8.103,156.8419,27.41,78,59,2.19,SB,1682092737
205,minas de marcona,-15.2119,-75.1103,20.87,64,96,5.86,PE,1682092737
206,al burayqah,30.4062,19.5739,28.9,27,68,6.02,LY,1682092738
207,krasnovishersk,60.4078,57.082,4.89,79,97,0.6,RU,1682092738
208,mili,6.0815,171.735,27.36,81,78,3.89,MH,1682092738
209,klyuchi,52.2667,79.1667,-1.55,77,6,2.34,RU,1682092739
210,east london,-33.0153,27.9116,19.52,63,20,6.17,ZA,1682092740
211,harper,4.375,-7.7169,29.62,70,92,6.02,LR,1682092740
212,mar del plata,-38.0023,-57.5575,19.41,53,0,7.72,AR,1682092596
213,brady,31.1352,-99.3351,21.87,37,0,7.2,US,1682092740
214,jiuquan,39.7432,98.5174,4.54,74,50,3.92,CN,1682092741
215,sinop,41.7711,34.8709,8.58,93,99,1.24,TR,1682092741
216,thinadhoo,0.5333,72.9333,29.51,70,96,2.7,MV,1682092741
217,hyesan,41.4017,128.1778,-0.94,42,23,1.12,KP,1682092741
218,hassi messaoud,31.6804,6.0729,28.92,32,56,6.69,DZ,1682092742
219,coahuayana de hidalgo,18.7,-103.6583,29.33,47,47,1.92,MX,1682092742
220,de aar,-30.6497,24.0123,14.32,23,0,3.53,ZA,1682092742
221,dalmatovo,56.26,62.9362,9.42,59,99,2.79,RU,1682092742
222,vilyuchinsk,52.9306,158.4028,1.15,90,100,14.92,RU,1682092743
223,new norfolk,-42.7826,147.0587,15.72,73,100,1.79,AU,1682092743
224,sola,-13.8833,167.55,26.37,94,75,0.0,VU,1682092743
225,chimore,-16.9833,-65.1333,29.14,50,26,1.58,BO,1682092743
226,ocean city,39.2776,-74.5746,28.9,71,37,2.24,US,1682092556
227,manggar,-2.8833,108.2667,27.46,80,83,1.55,ID,1682092744
228,lae,-6.7221,146.9847,24.35,88,100,1.31,PG,1682092744
229,kargasok,59.0556,80.8572,0.38,80,80,4.16,RU,1682092744
230,namibe,-15.1961,12.1522,26.63,70,89,6.2,AO,1682092744
231,tanjung pandan,-2.75,107.65,25.84,87,72,1.24,ID,1682092745
232,tando adam,25.7637,68.661,30.06,18,0,5.13,PK,1682092745
233,hastings,50.8552,0.5729,11.89,77,45,1.91,GB,1682092508
234,kapoeta,4.7717,33.5903,33.3,32,37,5.79,SS,1682092746
235,nuku'alofa,-21.1333,-175.2,23.19,88,20,4.12,TO,1682092746
236,al mawsil al jadidah,36.3346,43.0978,20.23,33,0,3.41,IQ,1682092746
237,polonnaruwa,7.9333,81.0,25.28,84,91,1.09,LK,1682092747
238,margate,51.3813,1.3862,11.84,79,88,1.79,GB,1682092488
239,yellowknife,62.456,-114.3525,2.29,60,75,3.6,CA,1682092747
240,beinamar,8.6698,15.3813,36.82,24,100,2.54,TD,1682092747
241,ayorou,14.7308,0.9174,42.3,6,90,2.5,NE,1682092747
242,timmins,48.4669,-81.3331,0.9,100,100,4.12,CA,1682092711
243,north bend,43.4065,-124.2243,10.69,95,100,2.57,US,1682092748
244,eldama ravine,0.0516,35.7308,15.78,83,90,2.76,KE,1682092748
245,tanjung pinang,0.9167,104.45,27.02,79,10,2.11,ID,1682092748
246,ingelmunster,50.922,3.2621,12.7,71,99,2.54,BE,1682092749
247,nelson,-41.2833,173.2833,16.27,99,100,0.73,NZ,1682092749
248,el hadjira,32.6134,5.5126,28.29,24,1,8.55,DZ,1682092749
249,saipan,15.1355,145.701,27.39,100,20,6.69,MP,1682092749
250,kavalerovo,44.2661,135.0572,2.4,60,12,6.68,RU,1682092749
251,selibaby,15.159,-12.1829,37.61,11,100,4.48,MR,1682092750
252,shimoda,34.6667,138.95,17.28,85,98,7.05,JP,1682092750
253,uruzgan,32.8333,66.0,16.56,21,0,1.62,AF,1682092750
254,kununurra,-15.7667,128.7333,27.99,44,88,2.57,AU,1682092750
255,axim,4.8699,-2.2405,29.58,71,52,5.53,GH,1682092751
256,timbuktu,16.7735,-3.0074,40.21,8,30,5.6,ML,1682092751
257,ruokolahti,61.2833,28.8333,14.17,91,100,1.56,FI,1682092752
258,gaspe,48.8334,-64.4819,6.12,65,75,2.57,CA,1682092752
259,grand falls-windsor,48.9332,-55.6649,4.17,85,96,4.02,CA,1682092610
260,egilsstadir,65.2653,-14.3948,1.95,80,75,9.26,IS,1682092752
261,melfort,52.8667,-104.6177,-1.93,64,100,4.12,CA,1682092752
262,lompoc,34.6391,-120.4579,23.21,56,20,7.2,US,1682092598
263,pisco,-13.7,-76.2167,24.03,73,20,3.09,PE,1682092571
264,santyoku,37.4406,129.1708,9.67,57,19,1.43,KR,1682092753
265,diadi,16.662,121.3658,22.11,94,100,0.44,PH,1682092753
266,shakiso,5.75,38.9167,17.75,87,70,1.35,ET,1682092753
267,warrenton,-28.114,24.8475,19.31,12,0,3.84,ZA,1682092730
268,mount pearl,47.5166,-52.7813,3.86,91,100,9.77,CA,1682092754
269,susuman,62.7833,148.1667,-11.0,97,100,2.06,RU,1682092754
270,zaigrayevo,51.8336,108.2703,-9.21,76,11,0.52,RU,1682092754
271,tobelo,1.7284,128.0095,26.57,81,93,1.17,ID,1682092755
272,mabai,23.0128,104.4508,18.77,73,2,1.61,CN,1682092756
273,kapa'a,22.0752,-159.319,22.18,94,75,1.54,US,1682092756
274,haiku-pauwela,20.9219,-156.3051,23.91,88,0,3.09,US,1682092756
275,woolgoolga,-30.1106,153.2007,18.91,70,100,7.45,AU,1682092757
276,itaituba,-4.2761,-55.9836,33.09,62,40,4.63,BR,1682092757
277,inhambane,-23.865,35.3833,26.99,69,75,4.12,MZ,1682092758
278,iwaki,37.05,140.8833,12.79,49,99,1.34,JP,1682092758
279,bovalino,38.149,16.174,18.5,69,30,2.24,IT,1682092759
280,crane,31.3974,-102.3501,19.87,22,0,5.17,US,1682092759
281,alderetes,-26.8167,-65.1333,20.95,73,20,1.54,AR,1682092759
282,mogadishu,2.0371,45.3438,29.93,84,20,5.14,SO,1682092759
283,broken hill,-31.95,141.4333,13.86,65,0,4.11,AU,1682092760
284,develi,38.3906,35.4922,11.64,47,78,2.77,TR,1682092760
285,cockburn town,21.4612,-71.1419,25.44,75,80,4.37,TC,1682092760
286,tippi,7.2,35.45,23.12,71,97,0.88,ET,1682092761
287,ndende,-2.4008,11.3581,27.37,81,81,1.28,GA,1682092761
288,ghanzi,-21.5667,21.7833,25.22,29,100,1.89,BW,1682092761
289,homnabad,17.7667,77.1333,31.18,28,73,4.58,IN,1682092762
290,murmashi,68.8154,32.8115,2.23,64,0,2.0,RU,1682092762
291,mount gambier,-37.8333,140.7667,11.9,89,37,1.11,AU,1682092762
292,codrington,-38.2667,141.9667,15.34,79,100,2.04,AU,1682092762
293,sesheke,-17.4759,24.2968,27.31,31,47,2.51,ZM,1682092763
294,sur,22.5667,59.5289,27.13,58,34,1.82,OM,1682092763
295,yung shue wan,22.2333,114.1167,24.26,90,100,0.45,HK,1682092764
296,nar'yan-mar,67.6713,53.087,-0.32,99,100,1.95,RU,1682092764
297,san ignacio,17.1561,-89.0714,28.08,69,0,2.06,BZ,1682092764
298,young,-32.6833,-57.6333,23.15,25,74,5.02,UY,1682092764
299,zouerate,22.7187,-12.4521,28.21,17,3,4.96,MR,1682092765
300,alappuzha,9.49,76.3264,29.44,75,100,3.01,IN,1682092765
301,saint-gilles,43.6766,4.4302,21.16,63,75,8.75,FR,1682092765
302,kourou,5.1552,-52.6478,28.03,92,100,3.56,GF,1682092765
303,moorhead,46.8739,-96.7676,-0.02,86,100,10.29,US,1682092765
304,betio village,1.358,172.9211,27.02,79,29,4.81,KI,1682092766
305,cartagena,10.3997,-75.5144,28.79,79,40,3.6,CO,1682092688
306,marang,5.2056,103.2059,27.95,80,99,2.78,MY,1682092767
307,guerrero,17.6667,-100.0,30.64,33,13,1.46,MX,1682092767
308,tofol,5.3248,163.0078,28.27,78,91,5.56,FM,1682092767
309,rosarito,32.3333,-117.0333,24.48,40,0,1.15,MX,1682092767
310,xilin hot,43.9667,116.0333,3.84,19,88,4.66,CN,1682092768
311,figuig (centre),32.1089,-1.2286,26.74,12,7,1.08,MA,1682092768
312,flying fish cove,-10.4217,105.6791,27.49,76,100,7.51,CX,1682092768
313,bu'aale,1.0833,42.5833,32.97,45,96,3.44,SO,1682092844
314,murakami,38.2333,139.4833,7.14,52,52,3.26,JP,1682092844
315,greymouth,-42.4667,171.2,14.93,90,100,1.56,NZ,1682092844
316,kerman,30.2832,57.0788,20.92,26,75,2.06,IR,1682092845
317,parabel',58.6978,81.4825,0.11,80,72,3.96,RU,1682092845
318,piton saint-leu,-21.2196,55.3151,25.06,74,20,2.06,RE,1682092845
319,gombong,-7.6072,109.5142,24.99,93,100,0.68,ID,1682092845
320,dryden,49.7833,-92.7503,-2.84,80,100,10.8,CA,1682092846
321,alta,69.9689,23.2717,-0.41,86,100,2.57,NO,1682092846
322,ujae,8.9322,165.7642,26.93,83,97,7.95,MH,1682092846
323,mount isa,-20.7333,139.5,22.87,38,0,4.63,AU,1682092846
324,kerema,-7.9631,145.7785,25.56,88,100,3.05,PG,1682092847
325,labytnangi,66.6572,66.4183,-8.47,93,48,1.64,RU,1682092847
326,lycksele,64.5954,18.6735,13.93,41,98,5.14,SE,1682092848
327,shambu,9.5667,37.1,18.34,23,30,0.11,ET,1682092848
328,barra de santo antonio,-9.4047,-35.5072,31.6,57,6,4.8,BR,1682092848
329,vilyuysk,63.7553,121.6247,-7.88,95,100,2.03,RU,1682092848
330,maragogi,-9.0122,-35.2225,29.83,58,34,4.25,BR,1682092636
331,port mathurin,-19.6833,63.4167,26.28,78,13,8.28,MU,1682092849
332,mudgee,-32.5943,149.5871,9.21,97,3,2.38,AU,1682092849
333,dazhou,31.2159,107.5009,16.5,88,100,5.04,CN,1682092849
334,bubaque,11.2833,-15.8333,25.19,73,100,5.15,GW,1682092849
335,san rafael del sur,11.8485,-86.4384,29.54,46,82,1.84,NI,1682092850
336,rongelap,11.1635,166.8941,26.94,75,96,8.28,MH,1682092850
337,kazanka,47.8462,32.8218,8.75,88,100,6.16,UA,1682092850
338,antofagasta,-23.65,-70.4,19.6,64,7,3.8,CL,1682092596
339,aral,40.5156,81.2636,15.66,16,100,4.22,CN,1682092851
340,pacific grove,36.6177,-121.9166,17.71,69,15,4.02,US,1682092851
341,olavarria,-36.8927,-60.3225,19.82,31,100,6.7,AR,1682092842
342,kuta,-8.7233,115.1723,27.97,83,20,4.12,ID,1682092851
343,lumphat,13.4878,106.9816,24.51,86,88,2.14,KH,1682092852
344,callao,-12.0667,-77.15,24.16,69,0,3.09,PE,1682092852
345,arraial do cabo,-22.9661,-42.0278,24.98,65,20,5.66,BR,1682092795
346,vorkuta,67.5,64.0,-5.45,96,99,2.83,RU,1682092853
347,peniche,39.3558,-9.3811,15.31,84,100,5.36,PT,1682092755
348,pontianak,-0.0333,109.3333,26.99,78,40,1.03,ID,1682092854
349,alvaraes,-3.2208,-64.8042,27.93,73,99,0.8,BR,1682092854
350,uglekamensk,43.2172,133.2303,4.18,31,6,5.53,RU,1682092854
351,chibougamau,49.9168,-74.3659,1.79,60,20,4.63,CA,1682092854
352,borivli,19.2333,72.85,27.95,74,0,5.14,IN,1682092855
353,san antonio de pale,-1.4014,5.6325,27.07,75,100,4.08,GQ,1682092855
354,djibo,14.1022,-1.6306,40.96,8,89,2.57,BF,1682092855
355,mizdah,31.4451,12.9801,29.85,21,55,9.74,LY,1682092855
356,t'ongch'on-up,38.9539,127.8917,9.24,70,100,1.45,KP,1682092856
357,chinde,26.8418,88.0763,19.34,42,100,2.0,NP,1682092856
358,enewetak,11.3474,162.3373,25.27,92,100,8.48,MH,1682092856
359,nova sintra,14.8667,-24.7167,19.77,78,19,8.01,CV,1682092857
360,arteche,12.2645,125.4048,25.96,85,100,1.32,PH,1682092857
361,nhamunda,-2.1861,-56.7131,29.69,77,54,1.68,BR,1682092858
362,linxia chengguanzhen,35.6003,103.2064,5.72,89,100,1.14,CN,1682092858
363,lluta,-16.0147,-72.0142,16.07,40,41,3.66,PE,1682092859
364,kuanda,56.3161,116.0806,-8.02,81,100,0.48,RU,1682092859
365,akcaabat,41.0212,39.5715,12.93,82,75,4.12,TR,1682092860
366,shendi,16.6915,33.4341,37.05,8,23,3.95,SD,1682092860
367,ust'-ilimsk,58.0006,102.6619,-5.47,91,100,1.85,RU,1682092860
368,okehampton,50.7384,-4.0016,9.25,89,100,3.11,GB,1682092861
369,kaa-khem,51.6833,94.7333,-2.78,48,58,2.25,RU,1682092862
370,cambuga,13.6167,122.45,25.57,88,100,1.08,PH,1682092862
371,retiro,-34.5833,-58.3833,21.82,56,0,5.14,AR,1682092863
372,wynyard,-41.0,145.7167,12.77,88,52,3.22,AU,1682092863
373,qaqortoq,60.7167,-46.0333,6.19,61,97,2.05,GL,1682092864
374,zaragoza,41.6561,-0.8773,27.79,26,20,9.26,ES,1682092772
375,cestos city,5.46,-9.5828,29.16,68,100,4.72,LR,1682092864
376,cabo san lucas,22.8909,-109.9124,27.81,53,100,1.77,MX,1682092767
377,ishigaki,24.3448,124.1572,22.07,83,20,2.57,JP,1682092864
378,iskateley,67.6803,53.1512,-0.43,99,100,1.91,RU,1682092865
379,chapaev,50.2,51.1667,15.23,39,100,6.61,KZ,1682092865
380,kailua-kona,19.6406,-155.9956,23.66,89,78,0.89,US,1682092866
381,sidney,-33.8679,151.2073,16.61,84,0,5.14,AU,1682092724
382,yarmouth,41.7057,-70.2286,14.98,73,40,8.49,US,1682092867
383,la foa,-21.7108,165.8276,24.69,88,72,1.45,NC,1682092867
384,otjimbingwe,-22.35,16.1333,28.2,22,100,3.01,NA,1682092868
385,mersa matruh,31.3525,27.2453,19.11,63,0,3.09,EG,1682092868
386,keflavik,64.0049,-22.5624,9.95,70,75,7.72,IS,1682092868
387,christchurch,-43.5333,172.6333,13.84,94,100,2.57,NZ,1682092803
388,magadan,59.5667,150.8,-0.93,83,77,9.03,RU,1682092869
389,ghazni,33.5536,68.4269,12.98,30,9,1.51,AF,1682092869
390,dellys,36.9172,3.9131,18.45,73,0,6.8,DZ,1682092870
391,ta`u,-14.2336,-169.5144,27.51,81,91,7.47,AS,1682092870
392,richards bay,-28.783,32.0377,21.08,71,100,5.05,ZA,1682092870
393,northam,51.0333,-4.2167,9.03,91,86,3.82,GB,1682092871
394,sake,-1.5736,29.045,19.02,92,100,0.7,CD,1682092871
395,dzilam gonzalez,21.2833,-88.9333,32.56,45,14,2.86,MX,1682092872
396,broome,42.2506,-75.833,26.21,49,39,1.34,US,1682092872
397,kribi,2.95,9.9167,26.1,74,80,2.36,CM,1682092872
398,akureyri,65.6835,-18.0878,1.96,69,75,6.17,IS,1682092873
399,alo,7.4178,6.7371,33.02,52,100,3.73,NG,1682092873
400,kundian,32.4587,71.4775,25.91,34,3,2.46,PK,1682092874
401,saint-joseph,-21.3667,55.6167,26.21,81,29,4.48,RE,1682092874
402,kenai,60.5544,-151.2583,2.3,86,0,2.06,US,1682092875
403,cakovec,46.3844,16.4339,18.29,19,97,2.34,HR,1682092877
404,lata,40.1629,-8.3327,14.34,93,100,0.83,PT,1682092877
405,west island,-12.1568,96.8225,26.99,78,40,6.69,CC,1682092878
406,maksatikha,57.797,35.8825,8.1,81,100,2.38,RU,1682092878
407,novocheboksarsk,56.111,47.4776,14.31,35,20,1.0,RU,1682092878
408,puerto baquerizo moreno,-0.9,-89.6,28.55,84,75,3.09,EC,1682092879
409,isangel,-19.55,169.2667,25.55,81,48,3.63,VU,1682092879
410,tyukhtet,56.5389,89.3011,-0.96,95,97,2.56,RU,1682092879
411,lazaro cardenas,17.9583,-102.2,28.92,55,6,1.65,MX,1682092841
412,koesan,36.8108,127.7947,12.55,56,65,2.27,KR,1682092880
413,pangody,65.85,74.4859,-0.53,99,100,3.99,RU,1682092880
414,borogontsy,62.6683,131.1683,-6.28,99,100,1.25,RU,1682092881
415,utena,55.5,25.6,13.61,63,100,2.47,LT,1682092881
416,constitucion,-35.3333,-72.4167,15.92,85,90,1.18,CL,1682092634
417,ivdel',60.6911,60.4206,4.7,80,100,0.95,RU,1682092881
418,kalkaman,51.9525,76.0211,-0.82,77,6,4.5,KZ,1682092881
419,hobyo,5.3505,48.5268,29.04,71,44,6.07,SO,1682092767
420,tercan,39.7794,40.3925,9.6,56,65,3.16,TR,1682092882
421,lebyazh'ye,55.2689,66.4947,9.19,43,99,2.88,RU,1682092882
422,florence,43.7667,11.25,22.05,53,0,3.6,IT,1682092734
423,kungur,57.4368,56.9593,7.37,71,94,0.57,RU,1682092883
424,ust-tsilma,65.441,52.1498,0.71,99,100,2.49,RU,1682092883
425,marsh harbour,26.5412,-77.0636,24.06,72,12,5.39,BS,1682092807
426,puerto armuelles,8.2833,-82.8667,28.99,66,99,1.55,PA,1682092884
427,bassar,9.25,0.7833,37.15,25,21,2.13,TG,1682092884
428,sakaiminato,35.55,133.2333,12.99,50,40,9.77,JP,1682092885
429,isafjordur,66.0755,-23.124,1.02,64,75,5.14,IS,1682092885
430,arvika,59.6553,12.5852,18.34,40,40,1.9,SE,1682092885
431,isetskoye,56.4858,65.3226,8.64,39,99,2.85,RU,1682092886
432,pionerskiy,54.9508,20.2275,10.91,72,17,4.23,RU,1682092886
433,komsomol'skiy,43.9783,46.6985,17.14,57,100,3.46,RU,1682092886
434,prabumulih,-3.45,104.25,24.04,97,100,1.08,ID,1682092887
435,meulaboh,4.1363,96.1285,26.75,83,89,0.54,ID,1682092887
436,wagar,16.1525,36.2032,36.19,9,0,3.39,SD,1682092887
437,aden,12.7794,45.0367,28.18,76,25,8.25,YE,1682092888
438,campeni,46.3667,23.05,11.41,74,100,1.12,RO,1682092888
439,tionk essil,12.7856,-16.5217,34.03,32,44,8.04,SN,1682092888
440,ungsang-nodongjagu,42.3578,130.4622,5.96,24,2,6.47,KP,1682092889
441,glenfield park,-35.1372,147.334,10.89,81,0,1.51,AU,1682092889
442,tshabong,-26.05,22.45,23.49,30,65,2.88,BW,1682092889
443,bintulu,3.1667,113.0333,27.23,88,20,1.54,MY,1682092889
444,banda aceh,5.5577,95.3222,27.82,80,97,0.61,ID,1682092890
445,karagay,58.2667,54.9368,8.43,49,52,2.15,RU,1682092890
446,lib,8.3122,167.3766,27.25,82,87,7.53,MH,1682092890
447,tariba,7.8188,-72.2243,23.31,53,100,0.99,VE,1682092890
448,aleksandrovsk-sakhalinskiy,50.8975,142.1561,-0.9,96,100,7.67,RU,1682092891
449,virginia,37.5481,-77.4467,30.24,38,0,7.72,US,1682092891
450,hermanus,-34.4187,19.2345,13.78,55,100,1.74,ZA,1682092891
451,waddan,29.1614,16.139,33.53,12,90,1.64,LY,1682092891
452,caibarien,22.5206,-79.4669,27.22,63,0,3.61,CU,1682092892
453,reuleuet,5.2167,96.2833,27.69,79,96,1.01,ID,1682092892
454,sakakah,29.9697,40.2064,30.76,19,0,4.73,SA,1682092892
455,rikaze,29.25,88.8833,8.01,28,76,3.1,CN,1682092893
456,kidal,18.4411,1.4078,38.9,9,3,10.13,ML,1682092893
457,plouzane,48.3833,-4.6167,14.03,53,75,5.14,FR,1682092893
458,ulanhot,46.0833,122.0833,3.05,15,79,2.61,CN,1682092894
459,porto velho,-8.7619,-63.9039,29.03,70,75,2.57,BR,1682092625
460,nenjiang,49.1833,125.2167,0.07,51,14,4.48,CN,1682092894
461,keetmanshoop,-26.5833,18.1333,25.49,21,0,3.99,NA,1682092895
462,luganville,-15.5333,167.1667,26.04,87,83,3.1,VU,1682092895
463,bamboo flat,11.7,92.7167,28.0,77,3,4.03,IN,1682092896
464,east ballina,-28.8667,153.5833,16.56,73,90,6.36,AU,1682092896
465,tigre,-34.426,-58.5796,20.7,54,0,5.14,AR,1682092720
466,naze,28.3667,129.4833,20.51,91,32,8.99,JP,1682092834
467,alice springs,-23.7,133.8833,13.75,67,3,0.0,AU,1682092897
468,sitka,57.0531,-135.33,8.58,65,85,1.86,US,1682092897
469,taulaga,-11.0553,-171.0883,28.77,74,100,6.25,AS,1682092898
470,kruisfontein,-34.0033,24.7314,15.49,66,75,3.74,ZA,1682092898
471,luwingu,-10.2621,29.9271,19.02,91,88,1.47,ZM,1682092898
472,mezhdurechensk,53.6942,88.0603,-4.56,97,68,0.97,RU,1682092899
473,san luis de la loma,17.2706,-100.8939,29.72,48,4,4.06,MX,1682092900
474,khoyniki,51.8911,29.9552,13.68,49,90,3.98,BY,1682092900
475,ventspils,57.3894,21.5606,8.96,76,0,4.12,LV,1682092901
476,paranaiba,-19.6772,-51.1908,23.52,55,12,3.16,BR,1682092901
477,baringo,0.4667,35.9667,26.7,50,97,4.77,KE,1682092902
478,queenstown,-31.8976,26.8753,11.64,35,0,1.97,ZA,1682092663
479,melekeok village,7.4957,134.6367,27.56,81,76,3.86,PW,1682092902
480,tevriz,57.509,72.4042,3.63,72,85,2.0,RU,1682092903
481,nadi,-17.8,177.4167,25.0,88,75,0.0,FJ,1682092903
482,zahedan,29.4963,60.8629,23.95,11,20,6.17,IR,1682092904
483,inirida,3.8653,-67.9239,29.51,65,98,1.2,CO,1682092904
484,urengoy,65.9667,78.3667,-0.79,98,100,3.97,RU,1682092904
485,prince rupert,54.3161,-130.3201,5.83,85,0,6.17,CA,1682092848
486,port nelson,23.6333,-74.8333,24.64,74,0,3.42,BS,1682092905
487,karratha,-20.7377,116.8463,25.04,59,92,3.14,AU,1682092905
488,phrai bueng,14.7483,104.3626,33.19,51,33,4.48,TH,1682092905
489,kavieng,-2.5744,150.7967,27.63,80,82,4.95,PG,1682092906
490,belomorsk,64.5232,34.7668,2.04,99,100,0.86,RU,1682092906
491,toliara,-23.35,43.6667,24.53,83,0,2.27,MG,1682092906
492,chrysoupolis,40.9856,24.6939,17.89,72,20,3.6,GR,1682092907
493,kristiansund,63.1115,7.732,15.03,43,0,3.09,NO,1682092907
494,prince albert,53.2001,-105.7677,-0.03,64,100,3.6,CA,1682092907
495,pangai,-19.8,-174.35,25.72,71,20,9.34,TO,1682092907
496,sosnovo-ozerskoye,52.5249,111.5418,-11.82,81,0,1.02,RU,1682092908
497,atascocita,29.9988,-95.1766,24.56,72,75,4.12,US,1682092908
498,yokadouma,3.5167,15.05,25.62,78,100,1.3,CM,1682092908
499,hasaki,35.7333,140.8333,17.38,58,100,11.99,JP,1682092909
500,castillos,-34.1667,-53.8333,21.39,46,90,4.43,UY,1682092909
501,da nang,16.0678,108.2208,24.99,78,40,4.12,VN,1682092909
502,kiama,-34.6833,150.8667,16.67,86,3,0.45,AU,1682092909
503,lindi,-10.0,39.7167,24.6,94,58,1.64,TZ,1682092909
504,sterlitamak,53.6246,55.9502,11.98,46,100,1.42,RU,1682092910
505,sooke,48.3746,-123.7276,7.95,91,100,3.6,CA,1682092637
506,ocean shores,46.9737,-124.1563,9.45,85,100,4.63,US,1682092771
507,howard springs,-12.497,131.047,24.99,91,18,3.68,AU,1682092910
508,midvagur,62.0511,-7.1939,7.46,87,20,5.66,FO,1682092911
509,edd,13.9297,41.6925,33.3,49,37,9.44,ER,1682092911
510,guerrero negro,27.9769,-114.0611,21.12,39,0,1.57,MX,1682092693
511,karacabey,40.2152,28.4038,15.44,74,3,2.11,TR,1682092911
512,bouznika,33.7894,-7.1597,23.54,49,0,4.12,MA,1682092912
513,tarauaca,-8.1614,-70.7656,27.03,72,94,1.32,BR,1682092912
514,saudarkrokur,65.7461,-19.6394,2.18,75,90,5.35,IS,1682092912
515,bonthe,7.5264,-12.505,30.89,56,100,4.98,SL,1682092912
516,madang,-5.2246,145.7966,25.75,89,76,1.3,PG,1682092912
517,morehead city,34.7229,-76.726,27.24,64,0,1.79,US,1682092913
518,arcelia,18.2833,-100.2667,32.72,26,11,1.69,MX,1682092913
519,mhangura,-16.8939,30.1683,21.86,53,62,2.39,ZW,1682092913
520,andkhoy,36.9529,65.1238,22.61,14,0,3.24,AF,1682092913
521,belmonte,-15.8631,-38.8828,23.91,96,100,5.02,BR,1682092914
522,bireun,5.203,96.7009,27.64,78,100,1.31,ID,1682092914
523,sterling,39.0062,-77.4286,28.99,52,0,2.57,US,1682092788
524,tauranga,-37.6861,176.1667,19.92,94,92,2.68,NZ,1682092914
525,peterhead,57.5058,-1.7981,14.69,78,0,5.1,GB,1682092915
526,tual,-5.6667,132.75,28.79,71,98,5.81,ID,1682092915
527,tambopata,-12.7333,-69.1833,25.94,89,0,2.06,PE,1682092849
528,godhra,22.75,73.6333,31.44,26,85,5.58,IN,1682092915
529,sukabumi,-6.9181,106.9267,22.1,98,100,0.52,ID,1682092915
530,puerto gaitan,4.3133,-72.0816,29.61,59,100,0.69,CO,1682092916
531,paoua,7.2427,16.4406,35.07,27,100,1.86,CF,1682092916
532,dharchula,29.85,80.5333,13.75,72,57,3.05,IN,1682092916
533,dosso,13.049,3.1937,41.48,6,100,2.9,NE,1682092916
534,sol'tsy,58.1239,30.3238,11.66,70,100,1.55,RU,1682092917
535,kodinsk,58.6881,99.1844,-6.83,95,100,1.38,RU,1682092917
536,guasdualito,7.2424,-70.7324,30.0,66,75,1.54,VE,1682092917
537,ellsworth,44.5434,-68.4195,10.25,56,0,3.09,US,1682092917
538,fort saskatchewan,53.7168,-113.2187,3.39,72,100,3.13,CA,1682092828
539,ulladulla,-35.35,150.4667,13.0,82,3,2.22,AU,1682092918
540,ko pha ngan,9.7578,100.0291,27.38,75,9,1.91,TH,1682092918
541,ras al khaimah city,25.7895,55.9432,27.12,36,0,3.09,AE,1682092918
542,alexandria,31.2156,29.9553,20.3,62,99,4.78,EG,1682092756
543,st. john's,47.5649,-52.7093,4.32,91,100,11.62,CA,1682092919
544,tangalle,6.024,80.7911,28.09,85,74,4.44,LK,1682092919
545,brandon,27.9378,-82.2859,29.5,63,75,3.13,US,1682092828
546,acarau,-2.8856,-40.12,28.52,73,64,5.28,BR,1682092877
547,antsiranana,-12.2787,49.2917,28.42,69,40,6.17,MG,1682092920
548,twon-brass,4.3151,6.2418,27.17,77,92,4.29,NG,1682092689
549,kawardha,22.0167,81.25,29.06,32,83,4.45,IN,1682092920
550,fort mcmurray,56.7268,-111.381,2.77,44,0,2.06,CA,1682092868
551,laguna,38.421,-121.4238,19.6,57,0,4.12,US,1682092769
552,aliade,7.2964,8.487,30.53,57,100,5.44,NG,1682092921
553,nova olinda do norte,-3.8881,-59.0942,31.57,61,92,2.04,BR,1682092921
554,colonia,50.9333,6.95,19.39,46,0,5.66,DE,1682092810
555,usinsk,65.9939,57.5281,-1.61,90,100,4.18,RU,1682092921
556,cidreira,-30.1811,-50.2056,21.47,58,11,3.78,BR,1682092922
557,akjoujt,19.6969,-14.4164,32.39,14,97,5.73,MR,1682092922
558,garachico,28.7781,-17.7646,21.06,60,20,2.57,ES,1682092923
559,novodvinsk,64.4165,40.8122,2.86,98,100,2.67,RU,1682092923
560,sinabang,2.4803,96.3801,27.05,83,91,1.27,ID,1682092923
561,jayapura,-2.5333,140.7,25.66,91,93,1.13,ID,1682092924
562,alpine,32.835,-116.7664,24.82,28,1,0.66,US,1682092810
563,quellon,-43.1167,-73.6167,13.14,82,75,0.0,CL,1682092924
564,sierra grande,-41.606,-65.3557,21.61,21,96,10.28,AR,1682092925
565,baicheng,45.6167,122.8167,4.89,15,78,3.47,CN,1682092925
566,magistral'nyy,56.1725,107.4458,-6.83,97,98,1.45,RU,1682092925
567,kalianget,-7.05,113.9333,27.42,81,100,4.85,ID,1682092925
568,sarandi,-23.4436,-51.8739,22.75,46,0,4.63,BR,1682092820
569,yuzhno-kurilsk,44.0306,145.8556,4.15,64,9,9.56,RU,1682092926
570,pokhara,28.2333,83.9833,19.86,29,56,3.42,NP,1682092719
571,iaciara,-14.0958,-46.6317,32.03,41,24,2.0,BR,1682092926
