City_ID,City,Latitude,Longitude,Max Temp,Humidity,Cloudiness,Wind Speed,Country,Date
0,hammerfest,70.6634,23.6821,-1.75,86,75,3.6,NO,1682282058
1,kingston,17.997,-76.7936,29.0,75,91,0.97,JM,1682282132
2,bilibino,68.0546,166.4372,-4.33,64,52,2.29,RU,1682281887
3,puerto natales,-51.7236,-72.4875,11.25,54,75,3.6,CL,1682281963
4,pangkalanbuun,-2.6833,111.6167,24.55,97,95,0.89,ID,1682282133
5,alofi,-19.0595,-169.9187,25.94,73,40,6.17,NU,1682282133
6,college,64.8569,-147.8028,-9.12,53,100,8.75,US,1682282133
7,ust-nera,64.5667,143.2,-7.71,93,100,3.19,RU,1682282009
8,puerto ayora,-0.7393,-90.3518,29.98,86,69,4.47,EC,1682282134
9,arraias,-12.9288,-46.9437,23.37,64,84,2.74,BR,1682282134
10,dudinka,69.4058,86.1778,0.9,85,100,6.66,RU,1682282134
11,ma'rib,15.4591,45.3253,25.71,47,51,3.16,YE,1682282134
12,kyren,51.6828,102.1408,-3.94,82,20,1.08,RU,1682282135
13,arcachon,44.5875,-1.0519,14.18,88,100,5.14,FR,1682282135
14,ancud,-41.8697,-73.8203,12.36,74,85,0.21,CL,1682281977
15,talnakh,69.4865,88.3972,0.67,92,99,3.59,RU,1682281948
16,petropavlovsk-kamchatsky,53.0452,158.6483,0.33,80,75,2.0,RU,1682281841
17,kurumkan,54.3,110.3,-7.0,58,0,1.66,RU,1682282136
18,magadan,59.5667,150.8,0.89,62,83,7.68,RU,1682282137
19,west island,-12.1568,96.8225,26.99,89,75,4.63,CC,1682282137
20,la ronge,55.1001,-105.2842,9.12,27,75,5.66,CA,1682281839
21,rizokarpaso,35.6,34.375,16.86,77,0,7.94,CY,1682282137
22,labytnangi,66.6572,66.4183,-5.15,75,100,7.03,RU,1682282138
23,adamstown,-25.066,-130.1015,23.96,91,99,8.14,PN,1682282138
24,buka,40.8108,69.1986,18.35,31,90,0.82,UZ,1682282138
25,jamestown,42.097,-79.2353,5.31,70,100,4.63,US,1682282101
26,kittila,67.6647,24.8936,-2.92,43,0,0.51,FI,1682282139
27,albany,42.6001,-73.9662,11.14,86,100,0.45,US,1682281918
28,fort bragg,35.139,-79.006,24.39,31,0,6.69,US,1682282139
29,port-aux-francais,-49.35,70.2167,3.98,63,44,14.43,TF,1682282119
30,nar'yan-mar,67.6713,53.087,-8.18,90,25,6.4,RU,1682282140
31,malanje,-9.5402,16.341,18.78,96,94,1.18,AO,1682282140
32,grytviken,-54.2811,-36.5092,3.64,97,100,5.34,GS,1682282140
33,severo-yeniseyskiy,60.3725,93.0408,0.13,86,100,3.09,RU,1682282140
34,east london,-33.0153,27.9116,20.29,63,100,3.82,ZA,1682282141
35,xianyang,34.3378,108.7026,5.58,100,100,4.0,CN,1682282141
36,attalla,34.0218,-86.0886,19.47,49,20,3.6,US,1682281849
37,tiksi,71.6872,128.8694,-12.61,97,90,1.67,RU,1682282141
38,sitka,57.0531,-135.33,8.94,71,100,2.57,US,1682282142
39,bethel,41.3712,-73.414,17.23,75,100,3.09,US,1682282142
40,stanley,54.868,-1.6985,6.55,84,40,6.17,GB,1682282143
41,vorgashor,67.5833,63.95,-9.53,87,100,5.95,RU,1682282143
42,medicine hat,50.0501,-110.6683,14.56,30,75,8.23,CA,1682282143
43,edinburgh of the seven seas,-37.0676,-12.3116,17.24,81,100,13.25,SH,1682282143
44,hadibu,12.65,54.0333,27.9,76,19,0.75,YE,1682281916
45,zouerate,22.7187,-12.4521,26.69,21,0,4.01,MR,1682282144
46,waitangi,-43.9535,-176.5597,14.34,92,100,3.13,NZ,1682282144
47,georgetown,5.4112,100.3354,26.64,94,20,2.57,MY,1682282144
48,yuzhno-kurilsk,44.0306,145.8556,1.98,82,67,5.24,RU,1682282145
49,cannonvale,-20.2833,148.7,24.66,72,92,10.61,AU,1682282145
50,galle,6.0367,80.217,27.43,83,99,0.75,LK,1682282145
51,papatowai,-46.5619,169.4708,9.23,63,46,8.74,NZ,1682282145
52,brokopondo,4.75,-55.1667,26.03,86,100,1.8,SR,1682282146
53,tralee,52.2704,-9.7026,7.05,92,8,3.05,IE,1682282146
54,port elizabeth,-33.918,25.5701,20.61,83,0,1.03,ZA,1682282147
55,avarua,-21.2078,-159.775,26.03,65,20,4.12,CK,1682282147
56,kaoma,-14.7833,24.8,20.99,66,100,1.37,ZM,1682282147
57,isafjordur,66.0755,-23.124,1.53,65,69,2.26,IS,1682282148
58,qaqortoq,60.7167,-46.0333,2.23,77,99,1.19,GL,1682282033
59,omidiyeh,30.7597,49.705,27.84,26,1,2.2,IR,1682282148
60,san antonio de pale,-1.4014,5.6325,27.91,73,27,1.73,GQ,1682282037
61,yellowknife,62.456,-114.3525,10.29,37,20,3.6,CA,1682282039
62,koryazhma,61.3143,47.1691,1.74,73,100,0.94,RU,1682282149
63,ilulissat,69.2167,-51.1,1.01,100,100,1.54,GL,1682282149
64,ribeira grande,38.5167,-28.7,17.22,94,75,2.06,PT,1682282149
65,margaret river,-33.95,115.0667,13.19,79,100,7.22,AU,1682281951
66,kismayo,-0.3582,42.5454,28.18,76,100,2.83,SO,1682282150
67,ushuaia,-54.8,-68.3,7.81,57,20,1.03,AR,1682282150
68,anadyr,64.75,177.4833,-4.72,79,40,7.6,RU,1682282096
69,port mathurin,-19.6833,63.4167,26.2,81,11,8.55,MU,1682282151
70,fayroz koh,34.5195,65.2509,12.42,36,99,1.78,AF,1682282151
71,veraval,20.9,70.3667,26.03,81,36,5.67,IN,1682281922
72,holualoa,19.6228,-155.9522,24.91,82,75,4.63,US,1682282152
73,dakhla,23.6848,-15.958,20.01,83,0,9.26,EH,1682282152
74,basco,20.4487,121.9702,24.54,75,16,6.06,PH,1682282152
75,komsomol'skiy,43.9783,46.6985,11.59,83,100,2.89,RU,1682282153
76,carnarvon,-24.8667,113.6333,21.92,75,100,6.35,AU,1682282154
77,port-vila,-17.7338,168.3219,21.78,100,20,1.03,VU,1682282154
78,blackmans bay,-43.0167,147.3167,6.52,84,44,2.58,AU,1682281856
79,fale old settlement,-9.3852,-171.2468,28.58,74,24,2.6,TK,1682282155
80,kharp,66.8014,65.8081,-6.94,84,100,6.67,RU,1682282155
81,hamilton,39.1834,-84.5333,8.94,56,100,6.17,US,1682281974
82,shakawe,-18.3667,21.85,24.79,45,85,0.9,BW,1682282156
83,luderitz,-26.6481,15.1594,18.03,51,100,2.56,NA,1682282156
84,san patricio,28.017,-97.5169,20.92,84,100,6.01,US,1682282156
85,cascais,38.6979,-9.4215,17.74,82,20,7.6,PT,1682282157
86,longyearbyen,78.2186,15.6401,-8.09,67,0,3.6,SJ,1682281939
87,newport,51.5877,-2.9984,9.69,85,46,3.46,GB,1682282157
88,hawaiian paradise park,19.5933,-154.9731,25.5,85,100,2.57,US,1682282158
89,fredericton,45.9454,-66.6656,17.13,43,0,6.69,CA,1682282158
90,ceeldheer,3.8488,47.1806,28.29,74,100,3.91,SO,1682282158
91,wronki,52.7105,16.3804,13.12,95,71,0.72,PL,1682282159
92,avesta,60.1455,16.1679,1.74,97,100,2.28,SE,1682282159
93,conde,-7.2597,-34.9075,28.7,70,20,5.14,BR,1682282159
94,rawson,-43.3002,-65.1023,20.78,37,51,3.47,AR,1682282160
95,bafra,41.5678,35.9069,10.44,92,100,1.67,TR,1682282160
96,portland,45.5234,-122.6762,13.31,80,100,1.79,US,1682282150
97,angaur state,6.906,134.13,28.31,72,100,3.1,PW,1682282160
98,gadzhiyevo,69.2551,33.3362,-3.98,88,71,8.42,RU,1682282066
99,el calafate,-50.3408,-72.2768,9.33,85,54,1.46,AR,1682282161
100,aral,40.5156,81.2636,13.18,14,32,4.16,CN,1682282161
101,itaiba,-8.9475,-37.4228,26.22,46,99,4.63,BR,1682282161
102,thompson,55.7435,-97.8558,1.09,44,20,3.6,CA,1682282162
103,makhjan,17.2698,73.5003,23.25,84,39,0.56,IN,1682282162
104,saipan,15.1355,145.701,27.39,100,75,7.2,MP,1682281922
105,aioun,16.6614,-9.6149,32.86,12,3,4.62,MR,1682282163
106,sola,-13.8833,167.55,27.72,75,76,6.51,VU,1682282164
107,udachny,66.4167,112.4,-13.03,99,100,0.88,RU,1682282164
108,plakhtiyivka,46.1006,29.7217,9.91,67,100,2.37,UA,1682282165
109,invercargill,-46.4,168.35,11.68,82,85,0.89,NZ,1682282118
110,lazaro cardenas,17.9583,-102.2,29.23,57,3,4.77,MX,1682282167
111,iqaluit,63.7506,-68.5145,0.85,86,100,4.63,CA,1682282167
112,lastoursville,-0.8143,12.7287,23.18,97,79,3.53,GA,1682282168
113,kupang,-10.1667,123.5833,25.23,81,69,4.49,ID,1682282168
114,namibe,-15.1961,12.1522,24.19,67,95,5.44,AO,1682282170
115,tapejara,-28.0681,-52.0139,23.21,68,54,1.74,BR,1682282171
116,lobujya,27.95,86.8167,-13.3,41,0,2.74,NP,1682282171
117,osceola,28.042,-81.1242,28.99,47,72,5.55,US,1682282171
118,belem do brejo do cruz,-6.1886,-37.5358,29.22,48,93,6.05,BR,1682282172
119,ardakan,32.31,54.0175,20.72,41,100,2.89,IR,1682282172
120,lebu,-37.6167,-73.65,13.78,77,0,5.99,CL,1682282172
121,barrow in furness,54.1167,-3.2333,9.94,84,86,6.29,GB,1682281925
122,greymouth,-42.4667,171.2,10.44,74,16,2.03,NZ,1682282173
123,ternate,0.8,127.4,26.97,82,48,1.13,ID,1682282174
124,marka,1.7159,44.7717,28.0,77,100,3.17,SO,1682282174
125,vadso,70.0744,29.7487,-1.91,86,40,9.77,NO,1682282000
126,kaa-khem,51.6833,94.7333,0.44,61,6,2.56,RU,1682282175
127,atafu village,-8.5421,-172.5159,28.64,72,42,2.15,TK,1682282176
128,olonkinbyen,70.9221,-8.7187,-4.38,59,25,6.37,SJ,1682282176
129,zaozersk,69.4005,32.4476,-4.45,88,75,6.81,RU,1682282176
130,tecpan de galeana,17.25,-100.6833,31.9,47,15,4.11,MX,1682282177
131,salahonda,2.1019,-78.7217,27.68,74,74,4.04,CO,1682282177
132,klyuchi,52.2667,79.1667,8.01,54,96,7.29,RU,1682282141
133,kralendijk,12.15,-68.2667,30.99,62,40,2.06,BQ,1682282178
134,porto novo,6.4965,2.6036,27.9,80,100,2.99,BJ,1682282178
135,utrik,11.2278,169.8474,27.01,82,61,9.96,MH,1682282179
136,san miguel zapotitlan,25.9333,-109.05,29.93,14,0,7.01,MX,1682282179
137,lionel town,17.8101,-77.2406,26.68,67,62,1.92,JM,1682282179
138,taupo,-38.6833,176.0833,12.68,66,44,3.63,NZ,1682281916
139,constantia,44.1833,28.65,7.61,76,11,3.28,RO,1682282021
140,st. john's,47.5649,-52.7093,3.77,97,100,12.52,CA,1682281911
141,enewetak,11.3474,162.3373,27.09,84,93,8.59,MH,1682282181
142,rumoi,43.9344,141.6428,4.16,73,91,2.17,JP,1682282181
143,ambovombe,-25.1667,46.0833,21.0,91,85,2.41,MG,1682282182
144,berezovyy,51.6667,135.7,-1.59,92,100,2.16,RU,1682282182
145,bamboo flat,11.7,92.7167,27.84,73,94,0.63,IN,1682281914
146,aasiaat,68.7098,-52.8699,0.32,98,100,5.13,GL,1682282183
147,bredasdorp,-34.5322,20.0403,17.87,82,100,2.47,ZA,1682282184
148,punta arenas,-53.15,-70.9167,9.06,57,0,6.69,CL,1682281963
149,geraldton,-28.7667,114.6,21.23,73,100,7.2,AU,1682281921
150,tura,25.5198,90.2201,18.15,74,29,1.53,IN,1682282184
151,peniche,39.3558,-9.3811,17.28,90,41,4.01,PT,1682282185
152,ghadamis,30.1337,9.5007,22.26,18,2,5.73,LY,1682282186
153,linxia chengguanzhen,35.6003,103.2064,3.84,75,97,1.12,CN,1682282186
154,codrington,-38.2667,141.9667,10.71,86,0,2.99,AU,1682282187
155,loralai,30.3705,68.598,18.13,31,33,0.77,PK,1682282187
156,port alfred,-33.5906,26.891,20.94,67,96,4.52,ZA,1682282188
157,okhotsk,59.3833,143.3,-1.2,71,100,6.92,RU,1682282188
158,lodja,-3.4833,23.4333,20.22,100,100,0.31,CD,1682282189
159,ismayilli,40.779,48.1638,11.4,69,80,0.79,AZ,1682282189
160,pacasmayo,-7.4006,-79.5714,26.1,73,87,3.91,PE,1682282190
161,quellon,-43.1167,-73.6167,11.15,82,100,1.19,CL,1682282191
162,hermanus,-34.4187,19.2345,19.89,89,100,3.39,ZA,1682282191
163,vilyuchinsk,52.9306,158.4028,1.15,73,100,5.68,RU,1682282191
164,byron bay,-28.65,153.6167,21.9,61,85,8.17,AU,1682282192
165,pasarkemis,-6.1703,106.5303,26.12,100,20,2.06,ID,1682282192
166,kapa'a,22.0752,-159.319,25.99,86,100,1.54,US,1682282064
167,aldinga beach,-35.2793,138.4604,17.37,64,0,3.36,AU,1682282193
168,acajutla,13.5928,-89.8275,30.15,66,100,3.81,SV,1682282194
169,monte maiz,-33.2046,-62.6008,23.3,45,94,0.72,AR,1682282194
170,tindouf,27.6711,-8.1474,27.07,16,22,3.41,DZ,1682281995
171,sittwe,20.15,92.9,27.06,74,2,1.24,MM,1682282195
172,maues,-3.3836,-57.7186,26.5,89,96,0.53,BR,1682282196
173,brookings,44.3114,-96.7984,7.28,42,75,4.12,US,1682282196
174,arraial do cabo,-22.9661,-42.0278,24.92,61,0,4.12,BR,1682282196
175,colonia,50.9333,6.95,13.31,76,40,3.09,DE,1682282197
176,rikaze,29.25,88.8833,3.35,28,100,0.46,CN,1682282197
177,dryden,49.7833,-92.7503,3.16,30,40,3.09,CA,1682282198
178,port saint john's,-31.6229,29.5448,19.28,75,73,3.37,ZA,1682282198
179,sanawad,22.1833,76.0667,28.9,16,0,4.65,IN,1682282199
180,tazovsky,67.4667,78.7,0.12,98,100,7.16,RU,1682282039
181,kailua-kona,19.6406,-155.9956,26.98,81,75,4.63,US,1682282199
182,pudasjarvi,65.3833,26.9167,-2.9,91,100,2.09,FI,1682282199
183,kem',64.9555,34.5793,-3.4,92,100,1.42,RU,1682282200
184,kauhajoki,62.4333,22.1833,2.28,91,100,1.79,FI,1682282200
185,brisas de zicatela,15.8369,-97.0419,31.29,70,20,5.14,MX,1682282200
186,puerto baquerizo moreno,-0.9,-89.6,28.55,74,75,5.14,EC,1682282201
187,miquelon,47.0975,-56.3814,7.0,88,48,6.87,PM,1682282201
188,marquette,46.5333,-87.6335,2.24,66,100,2.68,US,1682282201
189,crane,31.3974,-102.3501,9.52,70,100,4.82,US,1682282201
190,along,28.1667,94.7667,16.71,96,100,1.11,IN,1682282201
191,aliganj,27.5,79.1833,24.31,27,74,1.62,IN,1682282202
192,castlegar,49.2998,-117.6689,10.38,94,100,1.05,CA,1682282202
193,westport,41.1415,-73.3579,19.3,70,100,4.02,US,1682282202
194,iskateley,67.6803,53.1512,-8.26,90,27,6.4,RU,1682282202
195,weno,7.4515,151.8468,27.97,83,40,0.0,FM,1682282203
196,sepuka,-4.75,34.5333,16.52,95,53,2.53,TZ,1682282203
197,cidreira,-30.1811,-50.2056,21.55,80,71,6.02,BR,1682282203
198,tonota,-21.4833,27.4833,21.06,31,99,2.12,BW,1682282203
199,erenhot,43.6475,111.9767,6.28,24,77,2.17,CN,1682282204
200,kingscliff,-28.2667,153.5667,20.96,60,40,7.72,AU,1682282204
201,kayangel,8.0823,134.7173,27.99,70,85,2.83,PW,1682282204
202,inarajan village,13.2736,144.7484,27.54,92,100,7.66,GU,1682282204
203,pemba,-12.974,40.5178,27.39,78,75,4.63,MZ,1682282205
204,balikpapan,-1.2675,116.8289,25.55,100,40,1.54,ID,1682282205
205,bankura,23.25,87.0667,24.81,61,47,1.38,IN,1682281981
206,sitia,35.2,26.0986,17.21,79,0,3.92,GR,1682282205
207,noumea,-22.2763,166.4572,26.11,99,74,3.2,NC,1682282206
208,whitehorse,60.7161,-135.0538,5.43,75,100,4.12,CA,1682281916
209,tazacorte,28.629,-17.9293,19.54,91,75,5.66,ES,1682282206
210,alaghsas,17.0187,8.0168,31.97,5,88,3.44,NE,1682282206
211,richmond,37.5538,-77.4603,21.78,38,75,4.63,US,1682281911
212,ketchikan,55.3422,-131.6461,8.26,87,100,3.6,US,1682282207
213,caririacu,-7.0422,-39.2836,27.05,54,40,2.06,BR,1682282207
214,balpyk bi,44.8947,78.2083,11.66,28,82,2.78,KZ,1682282208
215,aoulef,26.9667,1.0833,28.56,17,79,5.4,DZ,1682282208
216,afaahiti,-17.75,-149.2833,26.7,86,100,7.48,PF,1682282208
217,mil'kovo,55.6078,37.7956,13.36,52,27,1.02,RU,1682282208
218,mahaddayweyne,2.9726,45.5347,27.22,77,100,3.37,SO,1682282208
219,acapulco de juarez,16.8634,-99.8901,30.9,62,0,5.66,MX,1682282037
220,saacow,1.6279,42.4407,28.03,68,100,2.42,SO,1682282209
221,wailua homesteads,22.0669,-159.378,25.24,86,100,1.54,US,1682282209
222,monahans,31.5943,-102.8926,10.38,72,100,4.56,US,1682282210
223,faya-largeau,17.9257,19.1043,32.31,9,1,3.45,TD,1682282210
224,benguela,-12.5763,13.4055,26.45,83,98,1.43,AO,1682282211
225,nuuk,64.1835,-51.7216,3.34,81,75,2.57,GL,1682282211
226,akonolinga,3.7667,12.25,21.39,92,100,1.15,CM,1682282211
227,champerico,14.3,-91.9167,36.3,57,12,6.03,GT,1682282212
228,nizhnedevitsk,51.5419,38.3657,9.8,76,26,1.68,RU,1682282212
229,lihue,21.9789,-159.3672,25.58,87,100,1.54,US,1682282212
230,sao paulo de olivenca,-3.3783,-68.8725,25.64,91,100,0.76,BR,1682282213
231,kamphaeng phet,16.25,99.5,28.01,65,99,0.09,TH,1682282213
232,iwon-up,40.3231,128.6553,5.95,40,99,2.77,KP,1682282214
233,narutocho-mitsuishi,34.1833,134.6167,11.99,43,75,5.14,JP,1682282214
234,dolores,-36.3132,-57.6792,17.74,63,92,3.05,AR,1682282214
235,lata,40.1629,-8.3327,12.5,97,86,1.07,PT,1682282214
236,taltal,-25.4,-70.4833,19.58,73,19,2.49,CL,1682282116
237,port moresby,-9.4431,147.1797,24.68,100,20,1.54,PG,1682282215
238,broken hill,-31.95,141.4333,14.95,60,0,4.18,AU,1682282215
239,villanueva de la serena,38.9766,-5.7974,16.35,55,8,2.61,ES,1682282215
240,nova sintra,14.8667,-24.7167,20.34,76,4,11.52,CV,1682282216
241,qarazhal,48.0078,70.7903,10.85,55,0,3.25,KZ,1682282216
242,karystos,38.0133,24.4161,14.55,66,5,1.61,GR,1682282216
243,kuching,1.55,110.3333,28.34,76,40,2.06,MY,1682282216
244,mejit,10.2753,170.8646,27.25,81,37,9.94,MH,1682282217
245,ghanzi,-21.5667,21.7833,23.4,33,20,2.57,BW,1682282217
246,labrador city,52.9463,-66.9114,9.95,40,40,6.17,CA,1682282217
247,kolonia town,6.964,158.206,25.0,88,100,1.54,FM,1682282217
248,karratha,-20.7377,116.8463,26.51,60,89,0.94,AU,1682282218
249,kalix,65.853,23.1565,-3.55,93,100,2.19,SE,1682282218
250,megion,61.0296,76.1136,5.01,98,100,6.62,RU,1682282218
251,vrangel',42.7297,133.0839,3.25,50,0,4.13,RU,1682282219
252,port augusta,-32.5,137.7667,15.53,56,0,1.34,AU,1682282219
253,zinder,13.8072,8.9881,30.03,12,65,2.77,NE,1682282219
254,oodweyne,9.4092,45.064,24.85,60,100,5.01,SO,1682282219
255,fairview shores,28.5911,-81.3942,30.54,52,20,6.17,US,1682282220
256,nadi,-17.8,177.4167,25.0,78,20,3.09,FJ,1682282220
257,mangalam,9.7667,78.6667,27.78,64,100,3.88,IN,1682282220
258,nampula,-15.1165,39.2666,22.97,88,0,2.06,MZ,1682282220
259,zahedan,29.4963,60.8629,17.95,17,0,2.06,IR,1682282221
260,worland,44.0169,-107.9554,13.82,27,69,1.79,US,1682282221
261,dwarka,22.2394,68.9678,26.36,81,38,5.48,IN,1682282221
262,arkhangel'sk,64.5401,40.5433,-4.94,79,0,0.0,RU,1682282222
263,selfoss,63.9331,-20.9971,6.69,86,60,2.14,IS,1682282124
264,vernon,50.2581,-119.2691,9.61,81,100,1.54,CA,1682282223
265,nagqu,31.5,92.0,-5.0,31,100,5.0,CN,1682282223
266,sisimiut,66.9395,-53.6735,0.75,100,100,3.38,GL,1682282223
267,roma,43.2128,-75.4557,13.08,55,75,5.14,US,1682282071
268,muncar,-8.4333,114.3333,24.67,92,50,0.74,ID,1682282224
269,revda,56.801,59.9303,5.99,81,96,3.81,RU,1682281936
270,salta,-24.7859,-65.4117,15.33,93,100,1.54,AR,1682282054
271,devrekani,41.603,33.8392,5.09,95,100,0.19,TR,1682282225
272,la mira,18.035,-102.3266,29.91,53,3,4.61,MX,1682282226
273,solnechnyy,50.7214,136.6319,-1.36,88,98,1.44,RU,1682282226
274,whakatane,-37.9585,176.9854,16.54,99,57,3.94,NZ,1682282227
275,inari,68.906,27.0288,-3.89,80,41,3.08,FI,1682282227
276,val-d'or,48.1002,-77.7828,8.05,71,75,4.63,CA,1682282110
277,haikou,20.0458,110.3417,25.07,94,40,1.0,CN,1682282000
278,chibougamau,49.9168,-74.3659,5.79,93,100,6.17,CA,1682282228
279,copiapo,-27.3667,-70.3333,17.83,51,0,3.22,CL,1682282062
280,xianju,28.85,120.7333,14.71,98,100,1.35,CN,1682282229
281,cabo san lucas,22.8909,-109.9124,34.61,23,0,5.14,MX,1682282229
282,guangshui,31.6199,113.9978,8.79,94,100,4.1,CN,1682282230
283,sao felix do xingu,-6.6447,-51.995,26.33,80,95,0.96,BR,1682281986
284,hovd,48.0056,91.6419,0.64,46,0,1.25,MN,1682282230
285,sharqpur sharif,31.4633,74.1,22.07,20,0,2.19,PK,1682282231
286,bogra,24.85,89.3667,21.19,79,8,2.28,BD,1682282232
287,kodiak,57.79,-152.4072,3.73,41,0,7.2,US,1682282234
288,thief river falls,48.1191,-96.1812,5.53,55,100,4.63,US,1682282127
289,baxter,46.3433,-94.2867,4.9,41,100,4.63,US,1682282235
290,opuwo,-18.0607,13.84,21.44,55,42,3.0,NA,1682282235
291,touros,-5.1989,-35.4608,26.61,77,72,5.25,BR,1682282236
292,pisco,-13.7,-76.2167,25.03,73,0,5.66,PE,1682281999
293,happy valley-goose bay,53.3168,-60.3315,8.17,61,40,4.63,CA,1682282236
294,armacao de buzios,-22.7469,-41.8817,25.03,77,0,2.79,BR,1682282209
295,ahar,38.4774,47.0699,12.36,63,99,1.12,IR,1682282237
296,argo,37.6333,22.7333,14.32,80,30,0.55,GR,1682282022
297,novodvinsk,64.4165,40.8122,-5.14,88,98,1.21,RU,1682282238
298,raebareli,26.2167,81.2333,28.2,22,100,0.93,IN,1682282239
299,levuka,50.1834,-105.4011,4.84,75,15,2.28,CA,1682282239
300,cape coast,5.1053,-1.2466,28.08,82,100,4.89,GH,1682282239
301,as sulayyil,20.4607,45.5779,25.14,33,100,5.88,SA,1682282239
302,warman,52.3168,-106.5679,10.95,27,40,7.72,CA,1682282240
303,radomyshl,50.4961,29.2291,11.11,65,97,2.26,UA,1682282240
304,bosa,40.2993,8.4983,16.05,98,97,1.62,IT,1682282241
305,perryton,36.4,-100.8027,18.89,19,0,5.66,US,1682282241
306,ostersund,63.1792,14.6357,-0.77,100,100,1.03,SE,1682282242
307,punta cana,18.5818,-68.4043,24.87,78,75,2.06,DO,1682282243
308,taoudenni,22.6783,-3.9836,31.22,9,0,2.04,ML,1682282046
309,n'zeto,-7.2312,12.8666,25.72,91,100,2.25,AO,1682282244
310,howrah,22.5892,88.3103,25.0,83,40,0.0,IN,1682282245
311,garissa,-0.4536,39.6401,27.77,67,98,2.68,KE,1682282245
312,pran buri,12.3847,99.9098,25.96,85,77,1.92,TH,1682282246
313,changyon,38.2508,125.0961,9.1,41,100,2.46,KP,1682282246
314,shatrovo,56.5167,64.6333,5.83,84,16,4.67,RU,1682282246
315,keflavik,64.0049,-22.5624,5.95,70,75,2.57,IS,1682282227
316,inhambane,-23.865,35.3833,22.45,90,3,3.02,MZ,1682282247
317,dokkum,53.3222,5.997,11.1,100,100,3.6,NL,1682282247
318,campos belos,-13.0367,-46.7717,23.6,64,59,3.46,BR,1682282248
319,black river,18.0264,-77.8487,29.84,58,17,1.91,JM,1682282248
320,catole do rocha,-6.3439,-37.7467,28.52,48,95,5.73,BR,1682282248
321,myitkyina,25.3833,97.4,19.4,88,89,1.24,MM,1682282249
322,harper,4.375,-7.7169,26.57,87,67,2.38,LR,1682282249
323,badger,64.8,-147.5333,-9.16,52,100,8.75,US,1682282096
324,el obeid,13.1842,30.2167,31.13,27,73,1.71,SD,1682282250
325,tierra colorada,17.1667,-99.5833,29.31,35,27,4.58,MX,1682282251
326,trujillo,-8.116,-79.03,25.98,69,75,5.66,PE,1682281980
327,fortuna,40.5982,-124.1573,13.29,86,100,2.24,US,1682282252
328,bethanie,-26.4833,17.15,20.38,14,98,3.07,NA,1682282252
329,phongsali,21.6833,102.1058,17.3,58,75,0.58,LA,1682282252
330,fuerte olimpo,-21.0415,-57.8738,26.31,47,6,0.72,PY,1682282253
331,sydney mines,46.2367,-60.2177,10.63,72,20,5.66,CA,1682282253
332,lompoc,34.6391,-120.4579,23.72,76,100,11.62,US,1682282253
333,aykhal,66.0,111.5,-10.63,99,100,0.56,RU,1682282254
334,kununurra,-15.7667,128.7333,16.99,88,5,0.0,AU,1682282254
335,ascension,30.2169,-90.9001,23.89,55,0,3.09,US,1682282255
336,daru,-9.0763,143.2092,26.51,88,100,4.45,PG,1682282255
337,nieuw amsterdam,5.8833,-55.0833,28.09,88,40,1.03,SR,1682282256
338,yur'yevets,57.3201,43.1041,10.4,64,93,3.15,RU,1682282256
339,smithers,54.7804,-127.1743,8.18,81,100,0.0,CA,1682282113
340,grudki,53.0949,23.6685,11.68,62,3,4.79,PL,1682282256
341,halifax,44.6453,-63.5724,13.94,75,88,3.6,CA,1682282257
342,yermolayevo,52.7167,55.8,7.21,70,8,2.68,RU,1682282257
343,uturoa,-16.7333,-151.4333,28.13,76,99,6.52,PF,1682282118
344,shunyi,40.125,116.6453,4.97,75,0,1.0,CN,1682282258
345,kerikeri,-35.2268,173.9474,15.51,96,44,3.96,NZ,1682282258
346,gebeit,21.0667,36.3167,26.64,40,22,5.83,SD,1682282258
347,kavaratti,10.5669,72.642,28.44,71,95,4.5,IN,1682282259
348,dikhil,11.5,42.1667,25.58,69,100,3.53,DJ,1682282259
349,saint-philippe,-21.3585,55.7679,25.77,74,100,3.25,RE,1682282259
350,pangody,65.85,74.4859,0.98,94,100,6.67,RU,1682282259
351,salinopolis,-0.6136,-47.3561,26.41,86,97,3.29,BR,1682282260
352,olinda,-8.0089,-34.8553,25.85,78,75,1.03,BR,1682282260
353,akureyri,65.6835,-18.0878,3.96,48,0,5.14,IS,1682282260
354,tanumah,27.1,44.1333,25.43,35,100,2.78,SA,1682282260
355,ta`u,-14.2336,-169.5144,26.95,79,34,4.1,AS,1682282261
356,fisterra,42.9049,-9.2629,16.68,95,71,2.43,ES,1682282261
357,puerto deseado,-47.7503,-65.8938,15.24,48,98,4.36,AR,1682282261
358,turpan,42.9333,89.1667,14.06,23,0,1.3,CN,1682282262
359,bulata,9.8599,122.4016,27.46,78,100,3.42,PH,1682282262
360,grand baie,-20.0182,57.5802,25.26,82,87,0.89,MU,1682282234
361,saudarkrokur,65.7461,-19.6394,0.78,68,31,1.22,IS,1682282263
362,bryne,58.7354,5.6477,8.32,88,75,2.06,NO,1682282263
363,terbanggi besar,-4.8667,105.2333,24.22,92,96,1.32,ID,1682282263
364,kenai,60.5544,-151.2583,1.05,47,75,9.77,US,1682282263
365,naduvattam,11.4833,76.5667,13.59,86,23,0.86,IN,1682282264
366,tarauaca,-8.1614,-70.7656,27.34,85,45,1.1,BR,1682282264
367,ad dabbah,18.05,30.95,32.72,11,4,0.81,SD,1682282264
368,haiku-pauwela,20.9219,-156.3051,27.01,54,20,4.12,US,1682282265
369,urengoy,65.9667,78.3667,0.25,96,100,5.72,RU,1682282265
370,qamdo,31.1667,97.2333,2.04,38,100,1.47,CN,1682282265
371,tidjikja,18.5564,-11.4271,30.32,12,0,4.05,MR,1682282265
372,hasaki,35.7333,140.8333,11.27,65,100,8.22,JP,1682282266
373,kalmunai,7.4167,81.8167,27.5,77,100,1.62,LK,1682282266
374,mazamari,-11.3258,-74.5308,25.49,92,49,0.52,PE,1682282266
375,kudahuvadhoo,2.6708,72.8944,29.07,71,85,3.59,MV,1682282266
376,altai,46.3722,96.2583,-5.09,86,78,2.77,MN,1682282267
377,kourou,5.1552,-52.6478,26.03,92,100,0.74,GF,1682282267
378,taybad,34.74,60.7756,21.01,26,46,8.09,IR,1682282267
379,okha,53.5739,142.9478,-2.18,82,37,8.56,RU,1682282267
380,antonio enes,-16.2325,39.9086,24.41,78,5,3.0,MZ,1682282268
381,ujae,8.9322,165.7642,27.73,84,85,9.58,MH,1682282268
382,queenstown,-31.8976,26.8753,14.85,61,98,0.82,ZA,1682282268
383,karak city,31.1637,35.762,16.74,46,100,2.3,JO,1682282268
384,zeya,53.75,127.2667,-3.23,66,15,2.4,RU,1682282269
385,cerano,20.1167,-101.3833,26.87,11,82,3.08,MX,1682282269
386,veracruz,19.3333,-96.6667,35.07,38,29,2.31,MX,1682282267
387,nykobing falster,54.7691,11.8743,9.49,78,95,1.34,DK,1682282269
388,chonchi,-42.6128,-73.8092,15.07,81,89,0.79,CL,1682282270
389,ouarzazat,30.9189,-6.8934,26.16,18,40,7.2,MA,1682282139
390,smara,26.7384,-11.6719,19.78,65,1,7.41,EH,1682282270
391,lankaran,38.7543,48.8506,14.04,88,48,1.03,AZ,1682282270
392,rawala kot,33.8578,73.7604,11.56,46,0,3.0,PK,1682282271
393,ciudad melchor muzquiz,27.8833,-101.5167,14.24,74,100,4.99,MX,1682282271
394,mariehamn,60.0973,19.9348,6.92,93,100,3.6,AX,1682282271
395,shar,49.5886,81.0453,7.55,41,100,7.12,KZ,1682282272
396,cabedelo,-6.9811,-34.8339,29.37,78,90,5.47,BR,1682282272
397,clover,35.1113,-81.2265,23.52,36,75,1.54,US,1682282272
398,francistown,-21.17,27.5079,21.59,34,90,2.82,BW,1682282272
399,hithadhoo,-0.6,73.0833,28.86,73,97,2.51,MV,1682282272
400,kaka,37.3482,59.6143,21.42,35,79,0.88,TM,1682282273
401,port macquarie,-31.4333,152.9167,15.5,82,83,4.81,AU,1682282273
402,ciudad acuna,29.3232,-100.9522,16.16,61,100,6.69,MX,1682282273
403,chania,35.5122,24.0156,14.78,94,20,2.06,GR,1682282217
404,mogoytuy,51.2833,114.9167,-2.7,56,99,4.17,RU,1682282274
405,cururupu,-1.8283,-44.8683,25.74,83,100,1.96,BR,1682282274
406,takoradi,4.8845,-1.7554,27.54,84,77,3.73,GH,1682281994
407,rouissat,31.9243,5.3502,24.89,24,74,3.9,DZ,1682282275
408,guiuan,11.0333,125.7247,28.39,75,47,4.75,PH,1682282275
409,borogontsy,62.6683,131.1683,-8.13,93,37,3.31,RU,1682282275
410,charleston,32.7766,-79.9309,26.22,42,0,4.12,US,1682281987
411,bougouni,11.417,-7.479,32.23,12,10,2.24,ML,1682282276
412,guerrero negro,27.9769,-114.0611,21.54,55,13,6.46,MX,1682282276
413,papao,-17.75,-149.55,27.59,87,100,7.1,PF,1682282276
414,yarmouth,41.7057,-70.2286,12.3,92,100,6.69,US,1682282276
415,christchurch,-43.5333,172.6333,11.34,60,17,3.6,NZ,1682282126
416,mormugao,15.4,73.8,25.03,78,3,5.1,IN,1682282277
417,zhelezinka,53.54,75.3072,8.55,57,71,1.6,KZ,1682282277
418,carahue,-38.7,-73.1667,15.77,58,0,2.37,CL,1682282278
419,kuta,-8.7233,115.1723,26.97,94,20,3.6,ID,1682282278
420,mount pleasant,32.7941,-79.8626,26.21,44,0,4.12,US,1682282025
421,laguna,38.421,-121.4238,27.38,47,0,3.09,US,1682282278
422,egilsstadir,65.2653,-14.3948,-0.05,64,0,4.63,IS,1682282280
423,ouesso,1.6136,16.0517,23.74,83,59,2.03,CG,1682282280
424,margate,51.3813,1.3862,9.94,85,99,1.34,GB,1682281995
425,mount pearl,47.5166,-52.7813,3.31,96,100,8.75,CA,1682282137
426,island harbour,50.724,-1.2758,9.99,82,71,1.79,GB,1682282281
427,waingapu,-9.6567,120.2641,25.19,87,28,4.18,ID,1682282281
428,flying fish cove,-10.4217,105.6791,26.84,81,30,7.06,CX,1682282282
429,ouadda,8.0777,22.4007,20.18,94,100,1.14,CF,1682282282
430,chipata,-13.6333,32.65,17.6,82,83,2.16,ZM,1682282283
431,mccook,40.2019,-100.6257,15.35,21,75,2.06,US,1682282283
432,tyazhinskiy,56.116,88.524,1.66,75,100,2.42,RU,1682282284
433,remire-montjoly,4.9167,-52.2667,26.02,89,75,1.54,GF,1682282284
434,mamuju,-2.6748,118.8885,26.11,83,90,1.8,ID,1682282284
435,saint johnsbury,44.4192,-72.0151,7.75,87,100,1.54,US,1682282251
436,taro,-8.3862,115.28,23.0,94,57,0.74,ID,1682282285
437,vila franca do campo,37.7167,-25.4333,18.23,95,90,5.88,PT,1682282286
438,walvis bay,-22.9575,14.5053,18.53,72,100,3.6,NA,1682282286
439,gamba,-2.65,10.0,25.85,89,69,3.02,GA,1682282286
440,susuman,62.7833,148.1667,-5.96,86,100,4.69,RU,1682282287
441,tofol,5.3248,163.0078,27.81,81,97,5.49,FM,1682282288
442,illizi,26.4833,8.4667,25.08,16,97,3.75,DZ,1682282288
443,ola,59.5833,151.2833,1.02,68,87,9.18,RU,1682282288
444,kaifeng,34.7911,114.3483,7.23,97,100,4.27,CN,1682282289
445,rongelap,11.1635,166.8941,27.13,82,84,9.67,MH,1682282289
446,pointe aux piments,-20.0628,57.5131,25.31,82,84,5.12,MU,1682282290
447,lubang,13.8584,120.124,27.96,78,75,7.82,PH,1682282291
448,new norfolk,-42.7826,147.0587,7.73,64,9,1.63,AU,1682282291
449,natal,-5.795,-35.2094,29.36,69,20,5.66,BR,1682282017
450,riohacha,11.5444,-72.9072,30.06,70,20,3.6,CO,1682282292
451,tafuna,-14.3358,-170.72,28.97,89,75,2.57,AS,1682282293
452,prey veng,11.4868,105.3253,27.08,71,54,2.96,KH,1682282293
453,markala,13.7021,-6.0659,34.29,14,5,3.45,ML,1682282293
454,pathein,16.7833,94.7333,26.43,88,2,1.14,MM,1682282294
455,mont-dore,-22.2833,166.5833,26.11,99,75,3.08,NC,1682282294
456,acarau,-2.8856,-40.12,26.28,81,100,5.36,BR,1682282295
457,belmonte,-15.8631,-38.8828,24.37,89,93,5.65,BR,1682282295
458,capelinha,-17.6914,-42.5158,18.69,79,95,2.37,BR,1682282295
459,beyla,8.6833,-8.6333,25.19,65,8,1.99,GN,1682282296
460,katsuren-haebaru,26.3369,127.8719,22.01,81,40,3.6,JP,1682282296
461,coahuayana de hidalgo,18.7,-103.6583,31.65,51,15,3.65,MX,1682282297
462,korla,41.7597,86.1469,9.05,53,65,0.68,CN,1682282297
463,cherdyn',60.403,56.4787,-1.38,85,62,1.22,RU,1682282298
464,port lincoln,-34.7333,135.8667,17.49,65,0,4.32,AU,1682282298
465,bathsheba,13.2167,-59.5167,25.34,94,75,6.69,BB,1682282298
466,nemuro,43.3236,145.575,1.81,82,47,4.48,JP,1682282299
467,fort st. john,56.2499,-120.8529,5.94,87,100,4.12,CA,1682282299
468,awjilah,29.1081,21.2869,26.35,20,0,4.16,LY,1682282247
469,tolanaro,-25.0319,46.9987,25.04,83,20,4.12,MG,1682282300
470,amahai,-3.3333,128.9167,25.58,86,27,2.01,ID,1682282301
471,kolonia,50.9333,6.95,13.31,76,40,3.09,DE,1682282299
472,isangel,-19.55,169.2667,26.83,72,66,2.32,VU,1682282301
473,kruisfontein,-34.0033,24.7314,19.38,71,99,1.24,ZA,1682282302
474,tomar,39.602,-8.4092,17.94,84,37,2.93,PT,1682282087
475,saint-francois,46.4154,3.9054,11.69,87,100,2.57,FR,1682282124
476,manay,7.215,126.5397,25.34,82,51,2.78,PH,1682282303
477,sirte,31.2089,16.5887,17.33,84,94,5.31,LY,1682282304
478,aswan,24.0934,32.907,31.61,14,62,7.2,EG,1682282304
479,bemidji,47.4736,-94.8803,4.47,56,100,3.6,US,1682282305
480,sechura,-5.5569,-80.8222,26.04,80,100,5.39,PE,1682282305
481,usinsk,65.9939,57.5281,-7.45,92,97,5.65,RU,1682282306
482,sosnovo-ozerskoye,52.5249,111.5418,-7.99,61,0,1.35,RU,1682282306
483,la'ie,21.6477,-157.9253,28.27,68,74,2.24,US,1682282307
484,alto araguaia,-17.3147,-53.2153,23.11,81,88,2.28,BR,1682282307
485,angola,-12.5,18.5,18.81,84,83,0.77,AO,1682282308
486,vila velha,-20.3297,-40.2925,23.97,87,75,2.57,BR,1682282308
487,saurimo,-9.6608,20.3916,19.51,92,91,1.1,AO,1682282309
488,johnstown,40.3267,-78.922,8.63,63,100,5.14,US,1682282246
489,la passe,45.5549,-0.8967,14.13,87,24,6.15,FR,1682282309
490,gasa,31.5,34.4667,16.04,73,41,2.95,PS,1682282310
491,saldanha,-33.0117,17.9442,15.03,96,100,5.35,ZA,1682282310
492,kayyerkan,69.3786,87.7439,0.72,74,97,4.56,RU,1682282311
493,gunjur,13.2019,-16.7339,24.04,69,0,2.06,GM,1682282311
494,sur,22.5667,59.5289,27.63,59,96,6.54,OM,1682282312
495,trondheim,63.4305,10.3951,1.05,91,100,0.45,NO,1682282312
496,madalena,41.2162,-8.3345,15.81,93,100,0.71,PT,1682282313
497,yayva,59.3303,57.2641,2.32,82,67,1.61,RU,1682282313
498,inda silase,14.1031,38.2829,22.26,17,57,1.88,ET,1682282313
499,nova vicosa,-17.8919,-39.3719,24.65,78,75,6.32,BR,1682282314
500,tsiombe,-25.3,45.4833,21.57,83,100,1.98,MG,1682282314
501,puerto aysen,-45.4,-72.7,13.03,94,100,1.26,CL,1682282314
502,beau vallon,-20.4189,57.6953,25.13,88,40,1.54,MU,1682282315
503,suileng,47.25,127.0833,0.61,34,0,3.09,CN,1682282315
504,naze,28.3667,129.4833,20.51,81,31,5.95,JP,1682282315
505,berlin,52.5244,13.4105,14.43,76,0,3.6,DE,1682282058
506,dinajpur,25.6272,88.6386,21.82,73,13,3.46,BD,1682282316
507,divrigi,39.371,38.1137,9.77,93,87,1.05,TR,1682282316
508,chamzinka,54.4019,45.7839,10.03,48,65,1.2,RU,1682282317
509,demre,36.2537,29.9777,15.94,70,2,1.53,TR,1682282317
510,murzuq,25.9155,13.9184,25.29,19,43,4.13,LY,1682282317
511,beboto,8.2668,16.939,27.14,61,100,2.76,TD,1682282318
512,swakopmund,-22.6833,14.5333,18.47,85,95,0.45,NA,1682282318
513,aginskoye,51.1,114.53,-2.35,52,100,5.49,RU,1682282318
514,kazanskoye,55.6448,69.235,8.21,86,66,5.91,RU,1682282318
515,anna regina,7.2644,-58.5077,25.3,87,100,2.05,GY,1682282319
516,qarauyl,48.9451,79.255,8.66,33,87,5.16,KZ,1682282319
517,namtsy,62.7161,129.6658,-5.96,92,23,4.49,RU,1682282319
518,pontes e lacerda,-15.2261,-59.3353,24.81,91,96,1.1,BR,1682282272
519,luau,-10.7073,22.2247,19.97,86,96,1.56,AO,1682282320
520,masterton,-40.9597,175.6575,8.68,88,100,5.53,NZ,1682282320
521,valderice,38.0401,12.6151,15.55,82,0,2.57,IT,1682282320
522,carutapera,-1.195,-46.02,25.29,90,100,3.79,BR,1682282321
523,bugana,7.9992,7.5836,28.7,67,99,1.85,NG,1682282321
524,selibaby,15.159,-12.1829,34.97,14,3,4.36,MR,1682282321
525,mugumu,-1.85,34.7,16.75,98,100,1.95,TZ,1682282321
526,palikir - national government center,6.9248,158.1611,24.41,88,100,1.54,FM,1682282322
527,rabo de peixe,37.8,-25.5833,17.73,94,40,6.69,PT,1682282322
528,lubumbashi,-11.6609,27.4794,18.42,92,100,1.43,CD,1682282322
529,tarnogskiy gorodok,60.4997,43.5761,4.1,89,98,2.42,RU,1682282323
530,thunder bay,48.4001,-89.3168,0.99,55,100,2.06,CA,1682282323
531,coihueco,-36.6167,-71.8333,18.41,59,20,1.54,CL,1682282323
532,manfalut,27.3104,30.97,25.14,26,28,4.16,EG,1682282323
533,watsa,3.0372,29.5355,17.4,99,100,1.16,CD,1682282324
534,amealco,20.1833,-100.15,25.04,15,88,7.06,MX,1682282324
535,mahina,-17.5065,-149.489,27.64,89,75,4.12,PF,1682282324
536,souillac,-20.5167,57.5167,25.21,88,40,1.54,MU,1682282325
537,san luis de la loma,17.2706,-100.8939,30.67,56,8,3.65,MX,1682282202
538,eyl,7.9803,49.8164,28.32,70,20,4.93,SO,1682282325
539,santa cruz,-17.8,-63.1667,28.03,57,40,1.54,BO,1682282325
540,bikenibeu village,1.3673,173.1241,27.98,78,20,3.6,KI,1682282326
541,sao jose da coroa grande,-8.8978,-35.1478,25.9,81,70,4.04,BR,1682282326
542,macau,22.2006,113.5461,24.92,94,40,5.14,MO,1682282326
543,santa ana de yacuma,-13.75,-65.4333,30.97,62,75,2.57,BO,1682282327
544,jacobina,-11.1806,-40.5183,21.61,89,70,2.17,BR,1682282327
545,yakeshi,49.2833,120.7333,-1.74,27,100,2.04,CN,1682282327
546,aleksandrovsk-sakhalinskiy,50.8975,142.1561,-0.18,94,100,4.08,RU,1682282328
547,north bend,43.4065,-124.2243,12.7,76,100,2.57,US,1682282328
548,merizo village,13.2658,144.6691,27.31,92,100,7.8,GU,1682282236
549,kendari,-3.945,122.4989,23.97,95,89,1.0,ID,1682282329
550,bima,-8.4667,118.7167,23.0,92,10,1.51,ID,1682282329
551,nguigmi,14.2495,13.1092,31.65,20,11,2.55,NE,1682282330
552,los osos,35.3111,-120.8324,26.95,54,0,8.23,US,1682282330
553,kushiro,42.975,144.3747,2.62,77,11,2.18,JP,1682282330
554,vila do maio,15.1333,-23.2167,23.44,76,5,8.39,CV,1682282330
555,the dalles,45.5946,-121.1787,18.93,63,75,8.94,US,1682282331
556,punta del este,-34.9667,-54.95,20.06,91,75,4.63,UY,1682282331
557,asamankese,5.8601,-0.6635,25.26,92,99,2.49,GH,1682282332
558,targu secuiesc,46.0,26.1333,5.86,86,20,0.86,RO,1682282332
559,mogadishu,2.0371,45.3438,28.44,75,100,3.32,SO,1682282182
560,monopoli,40.9559,17.2896,16.54,76,83,4.78,IT,1682282333
561,grand falls-windsor,48.9332,-55.6649,3.06,93,100,2.68,CA,1682282260
562,harstad,68.799,16.5293,-3.25,91,32,3.13,NO,1682282149
563,port shepstone,-30.7414,30.455,19.29,75,16,2.63,ZA,1682282334
564,motygino,58.1831,94.7592,-4.1,98,100,1.28,RU,1682282334
565,shevchenkove,49.6959,37.1735,8.34,89,46,2.95,UA,1682282334
566,vilyuysk,63.7553,121.6247,-12.79,97,80,2.0,RU,1682282335
567,gurupi,-11.7292,-49.0686,26.15,70,79,2.06,BR,1682282335
